[
  {
    "id": "old-meadow-path",
    "name": "Old Meadow Path",
    "description": "Anonymised public demo walk marker for FieldOps Atlas.",
    "siteType": "Walk",
    "status": "demo",
    "regionId": "south",
    "lat": 51.451498,
    "lng": -1.640915,
    "what3words": "",
    "accessNotes": "",
    "address": "",
    "gridRef": "",
    "services": [],
    "inputs": [],
    "equipment": [],
    "walkthrough": {
      "type": "",
      "url": "",
      "notes": ""
    }
  },
  {
    "id": "slate-arch-path",
    "name": "Slate Arch Path",
    "description": "Anonymised public demo walk marker for FieldOps Atlas.",
    "siteType": "Walk",
    "status": "demo",
    "regionId": "south",
    "lat": 50.82,
    "lng": -1.18,
    "what3words": "",
    "accessNotes": "",
    "address": "",
    "gridRef": "",
    "services": [],
    "inputs": [],
    "equipment": [],
    "walkthrough": {
      "type": "",
      "url": "",
      "notes": ""
    }
  },
  {
    "id": "bright-hollow-ridge",
    "name": "Bright Hollow Ridge",
    "description": "Anonymised public demo walk marker for FieldOps Atlas.",
    "siteType": "Walk",
    "status": "demo",
    "regionId": "south",
    "lat": 51.274565,
    "lng": -0.808748,
    "what3words": "",
    "accessNotes": "",
    "address": "",
    "gridRef": "",
    "services": [],
    "inputs": [],
    "equipment": [],
    "walkthrough": {
      "type": "",
      "url": "",
      "notes": ""
    }
  },
  {
    "id": "kestrel-mere-ramble",
    "name": "Kestrel Mere Ramble",
    "description": "Anonymised public demo walk marker for FieldOps Atlas.",
    "siteType": "Walk",
    "status": "demo",
    "regionId": "south",
    "lat": 51.57588,
    "lng": -0.092532,
    "what3words": "",
    "accessNotes": "",
    "address": "",
    "gridRef": "",
    "services": [],
    "inputs": [],
    "equipment": [],
    "walkthrough": {
      "type": "",
      "url": "",
      "notes": ""
    }
  },
  {
    "id": "emerald-dale-ridge",
    "name": "Emerald Dale Ridge",
    "description": "Anonymised public demo walk marker for FieldOps Atlas.",
    "siteType": "Walk",
    "status": "demo",
    "regionId": "south",
    "lat": 51.642238,
    "lng": 0.721002,
    "what3words": "",
    "accessNotes": "",
    "address": "",
    "gridRef": "",
    "services": [],
    "inputs": [],
    "equipment": [],
    "walkthrough": {
      "type": "",
      "url": "",
      "notes": ""
    }
  },
  {
    "id": "rowan-shelf-loop",
    "name": "Rowan Shelf Loop",
    "description": "Anonymised public demo walk marker for FieldOps Atlas.",
    "siteType": "Walk",
    "status": "demo",
    "regionId": "south",
    "lat": 51.114498,
    "lng": -0.94303,
    "what3words": "",
    "accessNotes": "",
    "address": "",
    "gridRef": "",
    "services": [],
    "inputs": [],
    "equipment": [],
    "walkthrough": {
      "type": "",
      "url": "",
      "notes": ""
    }
  },
  {
    "id": "hazel-basin-cave",
    "name": "Hazel Basin Cave",
    "description": "Anonymised public demo walk marker for FieldOps Atlas.",
    "siteType": "Walk",
    "status": "demo",
    "regionId": "south",
    "lat": 51.112606,
    "lng": -0.99049,
    "what3words": "",
    "accessNotes": "",
    "address": "",
    "gridRef": "",
    "services": [],
    "inputs": [],
    "equipment": [],
    "walkthrough": {
      "type": "",
      "url": "",
      "notes": ""
    }
  },
  {
    "id": "raven-dale-ramble",
    "name": "Raven Dale Ramble",
    "description": "Anonymised public demo walk marker for FieldOps Atlas.",
    "siteType": "Walk",
    "status": "demo",
    "regionId": "south",
    "lat": 50.078238,
    "lng": -5.5449,
    "what3words": "",
    "accessNotes": "",
    "address": "",
    "gridRef": "",
    "services": [],
    "inputs": [],
    "equipment": [],
    "walkthrough": {
      "type": "",
      "url": "",
      "notes": ""
    }
  },
  {
    "id": "green-way-ridge",
    "name": "Green Way Ridge",
    "description": "Anonymised public demo walk marker for FieldOps Atlas.",
    "siteType": "Walk",
    "status": "demo",
    "regionId": "south",
    "lat": 51.671077,
    "lng": -0.593976,
    "what3words": "",
    "accessNotes": "",
    "address": "",
    "gridRef": "",
    "services": [],
    "inputs": [],
    "equipment": [],
    "walkthrough": {
      "type": "",
      "url": "",
      "notes": ""
    }
  },
  {
    "id": "bracken-water-path",
    "name": "Bracken Water Path",
    "description": "Anonymised public demo walk marker for FieldOps Atlas.",
    "siteType": "Walk",
    "status": "demo",
    "regionId": "south",
    "lat": 51.218045,
    "lng": -1.492052,
    "what3words": "",
    "accessNotes": "",
    "address": "",
    "gridRef": "",
    "services": [],
    "inputs": [],
    "equipment": [],
    "walkthrough": {
      "type": "",
      "url": "",
      "notes": ""
    }
  },
  {
    "id": "silver-brook-cave",
    "name": "Silver Brook Cave",
    "description": "Anonymised public demo walk marker for FieldOps Atlas.",
    "siteType": "Walk",
    "status": "demo",
    "regionId": "south",
    "lat": 51.178129,
    "lng": -1.448859,
    "what3words": "",
    "accessNotes": "",
    "address": "",
    "gridRef": "",
    "services": [],
    "inputs": [],
    "equipment": [],
    "walkthrough": {
      "type": "",
      "url": "",
      "notes": ""
    }
  },
  {
    "id": "emerald-coast-loop",
    "name": "Emerald Coast Loop",
    "description": "Anonymised public demo walk marker for FieldOps Atlas.",
    "siteType": "Walk",
    "status": "demo",
    "regionId": "south",
    "lat": 51.67673,
    "lng": -0.21988,
    "what3words": "",
    "accessNotes": "",
    "address": "",
    "gridRef": "",
    "services": [],
    "inputs": [],
    "equipment": [],
    "walkthrough": {
      "type": "",
      "url": "",
      "notes": ""
    }
  },
  {
    "id": "dusk-haven-cave",
    "name": "Dusk Haven Cave",
    "description": "Anonymised public demo walk marker for FieldOps Atlas.",
    "siteType": "Walk",
    "status": "demo",
    "regionId": "south",
    "lat": 50.485659,
    "lng": -3.709543,
    "what3words": "",
    "accessNotes": "",
    "address": "",
    "gridRef": "",
    "services": [],
    "inputs": [],
    "equipment": [],
    "walkthrough": {
      "type": "",
      "url": "",
      "notes": ""
    }
  },
  {
    "id": "ivy-wood-ridge",
    "name": "Ivy Wood Ridge",
    "description": "Anonymised public demo walk marker for FieldOps Atlas.",
    "siteType": "Walk",
    "status": "demo",
    "regionId": "south",
    "lat": 51.177363,
    "lng": 0.900986,
    "what3words": "",
    "accessNotes": "",
    "address": "",
    "gridRef": "",
    "services": [],
    "inputs": [],
    "equipment": [],
    "walkthrough": {
      "type": "",
      "url": "",
      "notes": ""
    }
  },
  {
    "id": "cedar-harbour-cave",
    "name": "Cedar Harbour Cave",
    "description": "Anonymised public demo walk marker for FieldOps Atlas.",
    "siteType": "Walk",
    "status": "demo",
    "regionId": "south",
    "lat": 51.163482,
    "lng": 0.902795,
    "what3words": "",
    "accessNotes": "",
    "address": "",
    "gridRef": "",
    "services": [],
    "inputs": [],
    "equipment": [],
    "walkthrough": {
      "type": "",
      "url": "",
      "notes": ""
    }
  },
  {
    "id": "summer-dale-walk",
    "name": "Summer Dale Walk",
    "description": "Anonymised public demo walk marker for FieldOps Atlas.",
    "siteType": "Walk",
    "status": "demo",
    "regionId": "south",
    "lat": 51.120681,
    "lng": 0.934109,
    "what3words": "",
    "accessNotes": "",
    "address": "",
    "gridRef": "",
    "services": [],
    "inputs": [],
    "equipment": [],
    "walkthrough": {
      "type": "",
      "url": "",
      "notes": ""
    }
  },
  {
    "id": "water-way-hollow",
    "name": "Water Way Hollow",
    "description": "Anonymised public demo walk marker for FieldOps Atlas.",
    "siteType": "Walk",
    "status": "demo",
    "regionId": "south",
    "lat": 51.582196,
    "lng": -0.970856,
    "what3words": "",
    "accessNotes": "",
    "address": "",
    "gridRef": "",
    "services": [],
    "inputs": [],
    "equipment": [],
    "walkthrough": {
      "type": "",
      "url": "",
      "notes": ""
    }
  },
  {
    "id": "oak-wood-cave",
    "name": "Oak Wood Cave",
    "description": "Anonymised public demo walk marker for FieldOps Atlas.",
    "siteType": "Walk",
    "status": "demo",
    "regionId": "south",
    "lat": 51.702465,
    "lng": -2.191745,
    "what3words": "",
    "accessNotes": "",
    "address": "",
    "gridRef": "",
    "services": [],
    "inputs": [],
    "equipment": [],
    "walkthrough": {
      "type": "",
      "url": "",
      "notes": ""
    }
  },
  {
    "id": "hazel-stone-ramble",
    "name": "Hazel Stone Ramble",
    "description": "Anonymised public demo walk marker for FieldOps Atlas.",
    "siteType": "Walk",
    "status": "demo",
    "regionId": "south",
    "lat": 50.290522,
    "lng": -3.871818,
    "what3words": "",
    "accessNotes": "",
    "address": "",
    "gridRef": "",
    "services": [],
    "inputs": [],
    "equipment": [],
    "walkthrough": {
      "type": "",
      "url": "",
      "notes": ""
    }
  },
  {
    "id": "dove-mere-cave",
    "name": "Dove Mere Cave",
    "description": "Anonymised public demo walk marker for FieldOps Atlas.",
    "siteType": "Walk",
    "status": "demo",
    "regionId": "south",
    "lat": 50.844269,
    "lng": -3.179815,
    "what3words": "",
    "accessNotes": "",
    "address": "",
    "gridRef": "",
    "services": [],
    "inputs": [],
    "equipment": [],
    "walkthrough": {
      "type": "",
      "url": "",
      "notes": ""
    }
  },
  {
    "id": "juniper-view-trail",
    "name": "Juniper View Trail",
    "description": "Anonymised public demo walk marker for FieldOps Atlas.",
    "siteType": "Walk",
    "status": "demo",
    "regionId": "south",
    "lat": 50.720986,
    "lng": -3.049862,
    "what3words": "",
    "accessNotes": "",
    "address": "",
    "gridRef": "",
    "services": [],
    "inputs": [],
    "equipment": [],
    "walkthrough": {
      "type": "",
      "url": "",
      "notes": ""
    }
  },
  {
    "id": "robin-water-hollow",
    "name": "Robin Water Hollow",
    "description": "Anonymised public demo walk marker for FieldOps Atlas.",
    "siteType": "Walk",
    "status": "demo",
    "regionId": "south",
    "lat": 50.718571,
    "lng": -3.375827,
    "what3words": "",
    "accessNotes": "",
    "address": "",
    "gridRef": "",
    "services": [],
    "inputs": [],
    "equipment": [],
    "walkthrough": {
      "type": "",
      "url": "",
      "notes": ""
    }
  },
  {
    "id": "spring-camp-path",
    "name": "Spring Camp Path",
    "description": "Anonymised public demo walk marker for FieldOps Atlas.",
    "siteType": "Walk",
    "status": "demo",
    "regionId": "south",
    "lat": 51.723623,
    "lng": 0.415264,
    "what3words": "",
    "accessNotes": "",
    "address": "",
    "gridRef": "",
    "services": [],
    "inputs": [],
    "equipment": [],
    "walkthrough": {
      "type": "",
      "url": "",
      "notes": ""
    }
  },
  {
    "id": "autumn-lane-loop",
    "name": "Autumn Lane Loop",
    "description": "Anonymised public demo walk marker for FieldOps Atlas.",
    "siteType": "Walk",
    "status": "demo",
    "regionId": "south",
    "lat": 51.026361,
    "lng": -3.444746,
    "what3words": "",
    "accessNotes": "",
    "address": "",
    "gridRef": "",
    "services": [],
    "inputs": [],
    "equipment": [],
    "walkthrough": {
      "type": "",
      "url": "",
      "notes": ""
    }
  },
  {
    "id": "emerald-well-cave",
    "name": "Emerald Well Cave",
    "description": "Anonymised public demo walk marker for FieldOps Atlas.",
    "siteType": "Walk",
    "status": "demo",
    "regionId": "south",
    "lat": 51.581626,
    "lng": 0.47922,
    "what3words": "",
    "accessNotes": "",
    "address": "",
    "gridRef": "",
    "services": [],
    "inputs": [],
    "equipment": [],
    "walkthrough": {
      "type": "",
      "url": "",
      "notes": ""
    }
  },
  {
    "id": "dove-vale-hollow",
    "name": "Dove Vale Hollow",
    "description": "Anonymised public demo walk marker for FieldOps Atlas.",
    "siteType": "Walk",
    "status": "demo",
    "regionId": "south",
    "lat": 51.10527,
    "lng": -4.072931,
    "what3words": "",
    "accessNotes": "",
    "address": "",
    "gridRef": "",
    "services": [],
    "inputs": [],
    "equipment": [],
    "walkthrough": {
      "type": "",
      "url": "",
      "notes": ""
    }
  },
  {
    "id": "drift-tor-cave",
    "name": "Drift Tor Cave",
    "description": "Anonymised public demo walk marker for FieldOps Atlas.",
    "siteType": "Walk",
    "status": "demo",
    "regionId": "south",
    "lat": 51.003857,
    "lng": -4.155171,
    "what3words": "",
    "accessNotes": "",
    "address": "",
    "gridRef": "",
    "services": [],
    "inputs": [],
    "equipment": [],
    "walkthrough": {
      "type": "",
      "url": "",
      "notes": ""
    }
  },
  {
    "id": "deep-meadow-walk",
    "name": "Deep Meadow Walk",
    "description": "Anonymised public demo walk marker for FieldOps Atlas.",
    "siteType": "Walk",
    "status": "demo",
    "regionId": "south",
    "lat": 51.111505,
    "lng": -4.093705,
    "what3words": "",
    "accessNotes": "",
    "address": "",
    "gridRef": "",
    "services": [],
    "inputs": [],
    "equipment": [],
    "walkthrough": {
      "type": "",
      "url": "",
      "notes": ""
    }
  },
  {
    "id": "holly-loop-ramble",
    "name": "Holly Loop Ramble",
    "description": "Anonymised public demo walk marker for FieldOps Atlas.",
    "siteType": "Walk",
    "status": "demo",
    "regionId": "south",
    "lat": 51.528933,
    "lng": 0.495364,
    "what3words": "",
    "accessNotes": "",
    "address": "",
    "gridRef": "",
    "services": [],
    "inputs": [],
    "equipment": [],
    "walkthrough": {
      "type": "",
      "url": "",
      "notes": ""
    }
  },
  {
    "id": "amber-ledge-hollow",
    "name": "Amber Ledge Hollow",
    "description": "Anonymised public demo walk marker for FieldOps Atlas.",
    "siteType": "Walk",
    "status": "demo",
    "regionId": "south",
    "lat": 51.204239,
    "lng": -1.1035,
    "what3words": "",
    "accessNotes": "",
    "address": "",
    "gridRef": "",
    "services": [],
    "inputs": [],
    "equipment": [],
    "walkthrough": {
      "type": "",
      "url": "",
      "notes": ""
    }
  },
  {
    "id": "sunset-copse-hollow",
    "name": "Sunset Copse Hollow",
    "description": "Anonymised public demo walk marker for FieldOps Atlas.",
    "siteType": "Walk",
    "status": "demo",
    "regionId": "south",
    "lat": 51.347907,
    "lng": -2.364441,
    "what3words": "",
    "accessNotes": "",
    "address": "",
    "gridRef": "",
    "services": [],
    "inputs": [],
    "equipment": [],
    "walkthrough": {
      "type": "",
      "url": "",
      "notes": ""
    }
  },
  {
    "id": "bluebell-moss-ridge",
    "name": "Bluebell Moss Ridge",
    "description": "Anonymised public demo walk marker for FieldOps Atlas.",
    "siteType": "Walk",
    "status": "demo",
    "regionId": "south",
    "lat": 51.392732,
    "lng": -2.29624,
    "what3words": "",
    "accessNotes": "",
    "address": "",
    "gridRef": "",
    "services": [],
    "inputs": [],
    "equipment": [],
    "walkthrough": {
      "type": "",
      "url": "",
      "notes": ""
    }
  },
  {
    "id": "juniper-rise-hollow",
    "name": "Juniper Rise Hollow",
    "description": "Anonymised public demo walk marker for FieldOps Atlas.",
    "siteType": "Walk",
    "status": "demo",
    "regionId": "south",
    "lat": 50.418432,
    "lng": -3.639978,
    "what3words": "",
    "accessNotes": "",
    "address": "",
    "gridRef": "",
    "services": [],
    "inputs": [],
    "equipment": [],
    "walkthrough": {
      "type": "",
      "url": "",
      "notes": ""
    }
  },
  {
    "id": "lantern-dale-walk",
    "name": "Lantern Dale Walk",
    "description": "Anonymised public demo walk marker for FieldOps Atlas.",
    "siteType": "Walk",
    "status": "demo",
    "regionId": "south",
    "lat": 50.473623,
    "lng": -3.632302,
    "what3words": "",
    "accessNotes": "",
    "address": "",
    "gridRef": "",
    "services": [],
    "inputs": [],
    "equipment": [],
    "walkthrough": {
      "type": "",
      "url": "",
      "notes": ""
    }
  },
  {
    "id": "iron-step-hollow",
    "name": "Iron Step Hollow",
    "description": "Anonymised public demo walk marker for FieldOps Atlas.",
    "siteType": "Walk",
    "status": "demo",
    "regionId": "south",
    "lat": 50.849293,
    "lng": -2.739562,
    "what3words": "",
    "accessNotes": "",
    "address": "",
    "gridRef": "",
    "services": [],
    "inputs": [],
    "equipment": [],
    "walkthrough": {
      "type": "",
      "url": "",
      "notes": ""
    }
  },
  {
    "id": "bramble-trail-path",
    "name": "Bramble Trail Path",
    "description": "Anonymised public demo walk marker for FieldOps Atlas.",
    "siteType": "Walk",
    "status": "demo",
    "regionId": "south",
    "lat": 50.734543,
    "lng": -3.109807,
    "what3words": "",
    "accessNotes": "",
    "address": "",
    "gridRef": "",
    "services": [],
    "inputs": [],
    "equipment": [],
    "walkthrough": {
      "type": "",
      "url": "",
      "notes": ""
    }
  },
  {
    "id": "sunset-ridge-ridge",
    "name": "Sunset Ridge Ridge",
    "description": "Anonymised public demo walk marker for FieldOps Atlas.",
    "siteType": "Walk",
    "status": "demo",
    "regionId": "south",
    "lat": 51.590838,
    "lng": 0.538098,
    "what3words": "",
    "accessNotes": "",
    "address": "",
    "gridRef": "",
    "services": [],
    "inputs": [],
    "equipment": [],
    "walkthrough": {
      "type": "",
      "url": "",
      "notes": ""
    }
  },
  {
    "id": "summer-mill-hollow",
    "name": "Summer Mill Hollow",
    "description": "Anonymised public demo walk marker for FieldOps Atlas.",
    "siteType": "Walk",
    "status": "demo",
    "regionId": "south",
    "lat": 51.171076,
    "lng": -4.035771,
    "what3words": "",
    "accessNotes": "",
    "address": "",
    "gridRef": "",
    "services": [],
    "inputs": [],
    "equipment": [],
    "walkthrough": {
      "type": "",
      "url": "",
      "notes": ""
    }
  },
  {
    "id": "hidden-dell-walk",
    "name": "Hidden Dell Walk",
    "description": "Anonymised public demo walk marker for FieldOps Atlas.",
    "siteType": "Walk",
    "status": "demo",
    "regionId": "south",
    "lat": 50.818048,
    "lng": -0.073078,
    "what3words": "",
    "accessNotes": "",
    "address": "",
    "gridRef": "",
    "services": [],
    "inputs": [],
    "equipment": [],
    "walkthrough": {
      "type": "",
      "url": "",
      "notes": ""
    }
  },
  {
    "id": "oak-field-trail",
    "name": "Oak Field Trail",
    "description": "Anonymised public demo walk marker for FieldOps Atlas.",
    "siteType": "Walk",
    "status": "demo",
    "regionId": "south",
    "lat": 50.882498,
    "lng": 0.451338,
    "what3words": "",
    "accessNotes": "",
    "address": "",
    "gridRef": "",
    "services": [],
    "inputs": [],
    "equipment": [],
    "walkthrough": {
      "type": "",
      "url": "",
      "notes": ""
    }
  },
  {
    "id": "soft-dale-loop",
    "name": "Soft Dale Loop",
    "description": "Anonymised public demo walk marker for FieldOps Atlas.",
    "siteType": "Walk",
    "status": "demo",
    "regionId": "south",
    "lat": 50.818724,
    "lng": 0.433594,
    "what3words": "",
    "accessNotes": "",
    "address": "",
    "gridRef": "",
    "services": [],
    "inputs": [],
    "equipment": [],
    "walkthrough": {
      "type": "",
      "url": "",
      "notes": ""
    }
  },
  {
    "id": "brook-glen-ramble",
    "name": "Brook Glen Ramble",
    "description": "Anonymised public demo walk marker for FieldOps Atlas.",
    "siteType": "Walk",
    "status": "demo",
    "regionId": "south",
    "lat": 51.424212,
    "lng": 0.168336,
    "what3words": "",
    "accessNotes": "",
    "address": "",
    "gridRef": "",
    "services": [],
    "inputs": [],
    "equipment": [],
    "walkthrough": {
      "type": "",
      "url": "",
      "notes": ""
    }
  },
  {
    "id": "emerald-trail-trail",
    "name": "Emerald Trail Trail",
    "description": "Anonymised public demo walk marker for FieldOps Atlas.",
    "siteType": "Walk",
    "status": "demo",
    "regionId": "south",
    "lat": 51.324665,
    "lng": 0.039058,
    "what3words": "",
    "accessNotes": "",
    "address": "",
    "gridRef": "",
    "services": [],
    "inputs": [],
    "equipment": [],
    "walkthrough": {
      "type": "",
      "url": "",
      "notes": ""
    }
  },
  {
    "id": "pine-ridge-path",
    "name": "Pine Ridge Path",
    "description": "Anonymised public demo walk marker for FieldOps Atlas.",
    "siteType": "Walk",
    "status": "demo",
    "regionId": "south",
    "lat": 51.334199,
    "lng": -0.006023,
    "what3words": "",
    "accessNotes": "",
    "address": "",
    "gridRef": "",
    "services": [],
    "inputs": [],
    "equipment": [],
    "walkthrough": {
      "type": "",
      "url": "",
      "notes": ""
    }
  },
  {
    "id": "low-warren-ramble",
    "name": "Low Warren Ramble",
    "description": "Anonymised public demo walk marker for FieldOps Atlas.",
    "siteType": "Walk",
    "status": "demo",
    "regionId": "south",
    "lat": 50.649996,
    "lng": -2.422312,
    "what3words": "",
    "accessNotes": "",
    "address": "",
    "gridRef": "",
    "services": [],
    "inputs": [],
    "equipment": [],
    "walkthrough": {
      "type": "",
      "url": "",
      "notes": ""
    }
  },
  {
    "id": "ivy-coast-walk",
    "name": "Ivy Coast Walk",
    "description": "Anonymised public demo walk marker for FieldOps Atlas.",
    "siteType": "Walk",
    "status": "demo",
    "regionId": "south",
    "lat": 50.627738,
    "lng": -2.402456,
    "what3words": "",
    "accessNotes": "",
    "address": "",
    "gridRef": "",
    "services": [],
    "inputs": [],
    "equipment": [],
    "walkthrough": {
      "type": "",
      "url": "",
      "notes": ""
    }
  },
  {
    "id": "cedar-quarry-ramble",
    "name": "Cedar Quarry Ramble",
    "description": "Anonymised public demo walk marker for FieldOps Atlas.",
    "siteType": "Walk",
    "status": "demo",
    "regionId": "south",
    "lat": 50.547787,
    "lng": -3.511827,
    "what3words": "",
    "accessNotes": "",
    "address": "",
    "gridRef": "",
    "services": [],
    "inputs": [],
    "equipment": [],
    "walkthrough": {
      "type": "",
      "url": "",
      "notes": ""
    }
  },
  {
    "id": "stone-vale-loop",
    "name": "Stone Vale Loop",
    "description": "Anonymised public demo walk marker for FieldOps Atlas.",
    "siteType": "Walk",
    "status": "demo",
    "regionId": "south",
    "lat": 50.892227,
    "lng": -2.188664,
    "what3words": "",
    "accessNotes": "",
    "address": "",
    "gridRef": "",
    "services": [],
    "inputs": [],
    "equipment": [],
    "walkthrough": {
      "type": "",
      "url": "",
      "notes": ""
    }
  },
  {
    "id": "stone-falls-walk",
    "name": "Stone Falls Walk",
    "description": "Anonymised public demo walk marker for FieldOps Atlas.",
    "siteType": "Walk",
    "status": "demo",
    "regionId": "south",
    "lat": 50.836723,
    "lng": -2.145336,
    "what3words": "",
    "accessNotes": "",
    "address": "",
    "gridRef": "",
    "services": [],
    "inputs": [],
    "equipment": [],
    "walkthrough": {
      "type": "",
      "url": "",
      "notes": ""
    }
  },
  {
    "id": "velvet-crossing-path",
    "name": "Velvet Crossing Path",
    "description": "Anonymised public demo walk marker for FieldOps Atlas.",
    "siteType": "Walk",
    "status": "demo",
    "regionId": "south",
    "lat": 51.341726,
    "lng": 0.557667,
    "what3words": "",
    "accessNotes": "",
    "address": "",
    "gridRef": "",
    "services": [],
    "inputs": [],
    "equipment": [],
    "walkthrough": {
      "type": "",
      "url": "",
      "notes": ""
    }
  },
  {
    "id": "drift-edge-ridge",
    "name": "Drift Edge Ridge",
    "description": "Anonymised public demo walk marker for FieldOps Atlas.",
    "siteType": "Walk",
    "status": "demo",
    "regionId": "south",
    "lat": 51.33627,
    "lng": 0.549905,
    "what3words": "",
    "accessNotes": "",
    "address": "",
    "gridRef": "",
    "services": [],
    "inputs": [],
    "equipment": [],
    "walkthrough": {
      "type": "",
      "url": "",
      "notes": ""
    }
  },
  {
    "id": "slate-drift-ramble",
    "name": "Slate Drift Ramble",
    "description": "Anonymised public demo walk marker for FieldOps Atlas.",
    "siteType": "Walk",
    "status": "demo",
    "regionId": "south",
    "lat": 51.303152,
    "lng": 0.502218,
    "what3words": "",
    "accessNotes": "",
    "address": "",
    "gridRef": "",
    "services": [],
    "inputs": [],
    "equipment": [],
    "walkthrough": {
      "type": "",
      "url": "",
      "notes": ""
    }
  },
  {
    "id": "bramble-camp-ramble",
    "name": "Bramble Camp Ramble",
    "description": "Anonymised public demo walk marker for FieldOps Atlas.",
    "siteType": "Walk",
    "status": "demo",
    "regionId": "south",
    "lat": 51.306201,
    "lng": 0.552007,
    "what3words": "",
    "accessNotes": "",
    "address": "",
    "gridRef": "",
    "services": [],
    "inputs": [],
    "equipment": [],
    "walkthrough": {
      "type": "",
      "url": "",
      "notes": ""
    }
  },
  {
    "id": "dusk-warren-ramble",
    "name": "Dusk Warren Ramble",
    "description": "Anonymised public demo walk marker for FieldOps Atlas.",
    "siteType": "Walk",
    "status": "demo",
    "regionId": "south",
    "lat": 51.589044,
    "lng": -1.777567,
    "what3words": "",
    "accessNotes": "",
    "address": "",
    "gridRef": "",
    "services": [],
    "inputs": [],
    "equipment": [],
    "walkthrough": {
      "type": "",
      "url": "",
      "notes": ""
    }
  },
  {
    "id": "misty-brook-loop",
    "name": "Misty Brook Loop",
    "description": "Anonymised public demo walk marker for FieldOps Atlas.",
    "siteType": "Walk",
    "status": "demo",
    "regionId": "south",
    "lat": 51.753092,
    "lng": -1.262816,
    "what3words": "",
    "accessNotes": "",
    "address": "",
    "gridRef": "",
    "services": [],
    "inputs": [],
    "equipment": [],
    "walkthrough": {
      "type": "",
      "url": "",
      "notes": ""
    }
  },
  {
    "id": "maple-gate-cave",
    "name": "Maple Gate Cave",
    "description": "Anonymised public demo walk marker for FieldOps Atlas.",
    "siteType": "Walk",
    "status": "demo",
    "regionId": "south",
    "lat": 51.701308,
    "lng": -1.326517,
    "what3words": "",
    "accessNotes": "",
    "address": "",
    "gridRef": "",
    "services": [],
    "inputs": [],
    "equipment": [],
    "walkthrough": {
      "type": "",
      "url": "",
      "notes": ""
    }
  },
  {
    "id": "starling-shelf-path",
    "name": "Starling Shelf Path",
    "description": "Anonymised public demo walk marker for FieldOps Atlas.",
    "siteType": "Walk",
    "status": "demo",
    "regionId": "south",
    "lat": 50.707552,
    "lng": -4.715643,
    "what3words": "",
    "accessNotes": "",
    "address": "",
    "gridRef": "",
    "services": [],
    "inputs": [],
    "equipment": [],
    "walkthrough": {
      "type": "",
      "url": "",
      "notes": ""
    }
  },
  {
    "id": "kestrel-thicket-ramble",
    "name": "Kestrel Thicket Ramble",
    "description": "Anonymised public demo walk marker for FieldOps Atlas.",
    "siteType": "Walk",
    "status": "demo",
    "regionId": "south",
    "lat": 50.636283,
    "lng": -4.764811,
    "what3words": "",
    "accessNotes": "",
    "address": "",
    "gridRef": "",
    "services": [],
    "inputs": [],
    "equipment": [],
    "walkthrough": {
      "type": "",
      "url": "",
      "notes": ""
    }
  },
  {
    "id": "elm-well-ridge",
    "name": "Elm Well Ridge",
    "description": "Anonymised public demo walk marker for FieldOps Atlas.",
    "siteType": "Walk",
    "status": "demo",
    "regionId": "south",
    "lat": 50.576802,
    "lng": -3.646768,
    "what3words": "",
    "accessNotes": "",
    "address": "",
    "gridRef": "",
    "services": [],
    "inputs": [],
    "equipment": [],
    "walkthrough": {
      "type": "",
      "url": "",
      "notes": ""
    }
  },
  {
    "id": "cloud-coast-loop",
    "name": "Cloud Coast Loop",
    "description": "Anonymised public demo walk marker for FieldOps Atlas.",
    "siteType": "Walk",
    "status": "demo",
    "regionId": "south",
    "lat": 50.633038,
    "lng": -3.638468,
    "what3words": "",
    "accessNotes": "",
    "address": "",
    "gridRef": "",
    "services": [],
    "inputs": [],
    "equipment": [],
    "walkthrough": {
      "type": "",
      "url": "",
      "notes": ""
    }
  },
  {
    "id": "whisper-brook-hollow",
    "name": "Whisper Brook Hollow",
    "description": "Anonymised public demo walk marker for FieldOps Atlas.",
    "siteType": "Walk",
    "status": "demo",
    "regionId": "south",
    "lat": 50.663325,
    "lng": -2.257526,
    "what3words": "",
    "accessNotes": "",
    "address": "",
    "gridRef": "",
    "services": [],
    "inputs": [],
    "equipment": [],
    "walkthrough": {
      "type": "",
      "url": "",
      "notes": ""
    }
  },
  {
    "id": "deep-well-hollow",
    "name": "Deep Well Hollow",
    "description": "Anonymised public demo walk marker for FieldOps Atlas.",
    "siteType": "Walk",
    "status": "demo",
    "regionId": "south",
    "lat": 50.684269,
    "lng": -2.259196,
    "what3words": "",
    "accessNotes": "",
    "address": "",
    "gridRef": "",
    "services": [],
    "inputs": [],
    "equipment": [],
    "walkthrough": {
      "type": "",
      "url": "",
      "notes": ""
    }
  },
  {
    "id": "twilight-hollow-path",
    "name": "Twilight Hollow Path",
    "description": "Anonymised public demo walk marker for FieldOps Atlas.",
    "siteType": "Walk",
    "status": "demo",
    "regionId": "south",
    "lat": 51.387008,
    "lng": -2.217435,
    "what3words": "",
    "accessNotes": "",
    "address": "",
    "gridRef": "",
    "services": [],
    "inputs": [],
    "equipment": [],
    "walkthrough": {
      "type": "",
      "url": "",
      "notes": ""
    }
  },
  {
    "id": "soft-wood-ramble",
    "name": "Soft Wood Ramble",
    "description": "Anonymised public demo walk marker for FieldOps Atlas.",
    "siteType": "Walk",
    "status": "demo",
    "regionId": "south",
    "lat": 51.330013,
    "lng": 0.508701,
    "what3words": "",
    "accessNotes": "",
    "address": "",
    "gridRef": "",
    "services": [],
    "inputs": [],
    "equipment": [],
    "walkthrough": {
      "type": "",
      "url": "",
      "notes": ""
    }
  },
  {
    "id": "fern-lantern-loop",
    "name": "Fern Lantern Loop",
    "description": "Anonymised public demo walk marker for FieldOps Atlas.",
    "siteType": "Walk",
    "status": "demo",
    "regionId": "south",
    "lat": 50.707863,
    "lng": -1.09997,
    "what3words": "",
    "accessNotes": "",
    "address": "",
    "gridRef": "",
    "services": [],
    "inputs": [],
    "equipment": [],
    "walkthrough": {
      "type": "",
      "url": "",
      "notes": ""
    }
  },
  {
    "id": "deep-moor-walk",
    "name": "Deep Moor Walk",
    "description": "Anonymised public demo walk marker for FieldOps Atlas.",
    "siteType": "Walk",
    "status": "demo",
    "regionId": "south",
    "lat": 51.341234,
    "lng": 0.289424,
    "what3words": "",
    "accessNotes": "",
    "address": "",
    "gridRef": "",
    "services": [],
    "inputs": [],
    "equipment": [],
    "walkthrough": {
      "type": "",
      "url": "",
      "notes": ""
    }
  },
  {
    "id": "hidden-burrow-trail",
    "name": "Hidden Burrow Trail",
    "description": "Anonymised public demo walk marker for FieldOps Atlas.",
    "siteType": "Walk",
    "status": "demo",
    "regionId": "south",
    "lat": 50.658969,
    "lng": -3.107086,
    "what3words": "",
    "accessNotes": "",
    "address": "",
    "gridRef": "",
    "services": [],
    "inputs": [],
    "equipment": [],
    "walkthrough": {
      "type": "",
      "url": "",
      "notes": ""
    }
  },
  {
    "id": "bronze-falls-hollow",
    "name": "Bronze Falls Hollow",
    "description": "Anonymised public demo walk marker for FieldOps Atlas.",
    "siteType": "Walk",
    "status": "demo",
    "regionId": "south",
    "lat": 51.148919,
    "lng": -4.139588,
    "what3words": "",
    "accessNotes": "",
    "address": "",
    "gridRef": "",
    "services": [],
    "inputs": [],
    "equipment": [],
    "walkthrough": {
      "type": "",
      "url": "",
      "notes": ""
    }
  },
  {
    "id": "thistle-step-trail",
    "name": "Thistle Step Trail",
    "description": "Anonymised public demo walk marker for FieldOps Atlas.",
    "siteType": "Walk",
    "status": "demo",
    "regionId": "south",
    "lat": 51.63335,
    "lng": 0.261447,
    "what3words": "",
    "accessNotes": "",
    "address": "",
    "gridRef": "",
    "services": [],
    "inputs": [],
    "equipment": [],
    "walkthrough": {
      "type": "",
      "url": "",
      "notes": ""
    }
  },
  {
    "id": "brook-valley-trail",
    "name": "Brook Valley Trail",
    "description": "Anonymised public demo walk marker for FieldOps Atlas.",
    "siteType": "Walk",
    "status": "demo",
    "regionId": "south",
    "lat": 51.150091,
    "lng": -3.04508,
    "what3words": "",
    "accessNotes": "",
    "address": "",
    "gridRef": "",
    "services": [],
    "inputs": [],
    "equipment": [],
    "walkthrough": {
      "type": "",
      "url": "",
      "notes": ""
    }
  },
  {
    "id": "elm-water-path",
    "name": "Elm Water Path",
    "description": "Anonymised public demo walk marker for FieldOps Atlas.",
    "siteType": "Walk",
    "status": "demo",
    "regionId": "south",
    "lat": 50.735674,
    "lng": -2.760442,
    "what3words": "",
    "accessNotes": "",
    "address": "",
    "gridRef": "",
    "services": [],
    "inputs": [],
    "equipment": [],
    "walkthrough": {
      "type": "",
      "url": "",
      "notes": ""
    }
  },
  {
    "id": "golden-tor-ramble",
    "name": "Golden Tor Ramble",
    "description": "Anonymised public demo walk marker for FieldOps Atlas.",
    "siteType": "Walk",
    "status": "demo",
    "regionId": "south",
    "lat": 50.663157,
    "lng": -1.413507,
    "what3words": "",
    "accessNotes": "",
    "address": "",
    "gridRef": "",
    "services": [],
    "inputs": [],
    "equipment": [],
    "walkthrough": {
      "type": "",
      "url": "",
      "notes": ""
    }
  },
  {
    "id": "dawn-shore-loop",
    "name": "Dawn Shore Loop",
    "description": "Anonymised public demo walk marker for FieldOps Atlas.",
    "siteType": "Walk",
    "status": "demo",
    "regionId": "south",
    "lat": 50.813112,
    "lng": -0.098051,
    "what3words": "",
    "accessNotes": "",
    "address": "",
    "gridRef": "",
    "services": [],
    "inputs": [],
    "equipment": [],
    "walkthrough": {
      "type": "",
      "url": "",
      "notes": ""
    }
  },
  {
    "id": "dawn-brook-ridge",
    "name": "Dawn Brook Ridge",
    "description": "Anonymised public demo walk marker for FieldOps Atlas.",
    "siteType": "Walk",
    "status": "demo",
    "regionId": "south",
    "lat": 50.849907,
    "lng": -0.132754,
    "what3words": "",
    "accessNotes": "",
    "address": "",
    "gridRef": "",
    "services": [],
    "inputs": [],
    "equipment": [],
    "walkthrough": {
      "type": "",
      "url": "",
      "notes": ""
    }
  },
  {
    "id": "field-cove-path",
    "name": "Field Cove Path",
    "description": "Anonymised public demo walk marker for FieldOps Atlas.",
    "siteType": "Walk",
    "status": "demo",
    "regionId": "south",
    "lat": 51.425521,
    "lng": -2.534709,
    "what3words": "",
    "accessNotes": "",
    "address": "",
    "gridRef": "",
    "services": [],
    "inputs": [],
    "equipment": [],
    "walkthrough": {
      "type": "",
      "url": "",
      "notes": ""
    }
  },
  {
    "id": "ashen-grove-ramble",
    "name": "Ashen Grove Ramble",
    "description": "Anonymised public demo walk marker for FieldOps Atlas.",
    "siteType": "Walk",
    "status": "demo",
    "regionId": "south",
    "lat": 50.41315,
    "lng": -3.501132,
    "what3words": "",
    "accessNotes": "",
    "address": "",
    "gridRef": "",
    "services": [],
    "inputs": [],
    "equipment": [],
    "walkthrough": {
      "type": "",
      "url": "",
      "notes": ""
    }
  },
  {
    "id": "larch-drift-ridge",
    "name": "Larch Drift Ridge",
    "description": "Anonymised public demo walk marker for FieldOps Atlas.",
    "siteType": "Walk",
    "status": "demo",
    "regionId": "south",
    "lat": 51.191026,
    "lng": -1.121406,
    "what3words": "",
    "accessNotes": "",
    "address": "",
    "gridRef": "",
    "services": [],
    "inputs": [],
    "equipment": [],
    "walkthrough": {
      "type": "",
      "url": "",
      "notes": ""
    }
  },
  {
    "id": "green-grove-loop",
    "name": "Green Grove Loop",
    "description": "Anonymised public demo walk marker for FieldOps Atlas.",
    "siteType": "Walk",
    "status": "demo",
    "regionId": "south",
    "lat": 51.331475,
    "lng": 1.373632,
    "what3words": "",
    "accessNotes": "",
    "address": "",
    "gridRef": "",
    "services": [],
    "inputs": [],
    "equipment": [],
    "walkthrough": {
      "type": "",
      "url": "",
      "notes": ""
    }
  },
  {
    "id": "spring-tarn-ramble",
    "name": "Spring Tarn Ramble",
    "description": "Anonymised public demo walk marker for FieldOps Atlas.",
    "siteType": "Walk",
    "status": "demo",
    "regionId": "south",
    "lat": 51.160689,
    "lng": -1.008306,
    "what3words": "",
    "accessNotes": "",
    "address": "",
    "gridRef": "",
    "services": [],
    "inputs": [],
    "equipment": [],
    "walkthrough": {
      "type": "",
      "url": "",
      "notes": ""
    }
  },
  {
    "id": "juniper-valley-path",
    "name": "Juniper Valley Path",
    "description": "Anonymised public demo walk marker for FieldOps Atlas.",
    "siteType": "Walk",
    "status": "demo",
    "regionId": "south",
    "lat": 51.767051,
    "lng": -0.217141,
    "what3words": "",
    "accessNotes": "",
    "address": "",
    "gridRef": "",
    "services": [],
    "inputs": [],
    "equipment": [],
    "walkthrough": {
      "type": "",
      "url": "",
      "notes": ""
    }
  },
  {
    "id": "skylark-haven-trail",
    "name": "Skylark Haven Trail",
    "description": "Anonymised public demo walk marker for FieldOps Atlas.",
    "siteType": "Walk",
    "status": "demo",
    "regionId": "south",
    "lat": 51.061945,
    "lng": -3.51959,
    "what3words": "",
    "accessNotes": "",
    "address": "",
    "gridRef": "",
    "services": [],
    "inputs": [],
    "equipment": [],
    "walkthrough": {
      "type": "",
      "url": "",
      "notes": ""
    }
  },
  {
    "id": "woodland-bank-walk",
    "name": "Woodland Bank Walk",
    "description": "Anonymised public demo walk marker for FieldOps Atlas.",
    "siteType": "Walk",
    "status": "demo",
    "regionId": "south",
    "lat": 51.125394,
    "lng": -2.435365,
    "what3words": "",
    "accessNotes": "",
    "address": "",
    "gridRef": "",
    "services": [],
    "inputs": [],
    "equipment": [],
    "walkthrough": {
      "type": "",
      "url": "",
      "notes": ""
    }
  },
  {
    "id": "cedar-valley-path",
    "name": "Cedar Valley Path",
    "description": "Anonymised public demo walk marker for FieldOps Atlas.",
    "siteType": "Walk",
    "status": "demo",
    "regionId": "south",
    "lat": 51.559447,
    "lng": -0.121524,
    "what3words": "",
    "accessNotes": "",
    "address": "",
    "gridRef": "",
    "services": [],
    "inputs": [],
    "equipment": [],
    "walkthrough": {
      "type": "",
      "url": "",
      "notes": ""
    }
  },
  {
    "id": "drift-lane-hollow",
    "name": "Drift Lane Hollow",
    "description": "Anonymised public demo walk marker for FieldOps Atlas.",
    "siteType": "Walk",
    "status": "demo",
    "regionId": "south",
    "lat": 50.498547,
    "lng": -3.798184,
    "what3words": "",
    "accessNotes": "",
    "address": "",
    "gridRef": "",
    "services": [],
    "inputs": [],
    "equipment": [],
    "walkthrough": {
      "type": "",
      "url": "",
      "notes": ""
    }
  },
  {
    "id": "sunset-haven-cave",
    "name": "Sunset Haven Cave",
    "description": "Anonymised public demo walk marker for FieldOps Atlas.",
    "siteType": "Walk",
    "status": "demo",
    "regionId": "south",
    "lat": 50.796038,
    "lng": -4.555913,
    "what3words": "",
    "accessNotes": "",
    "address": "",
    "gridRef": "",
    "services": [],
    "inputs": [],
    "equipment": [],
    "walkthrough": {
      "type": "",
      "url": "",
      "notes": ""
    }
  },
  {
    "id": "bronze-falls-path",
    "name": "Bronze Falls Path",
    "description": "Anonymised public demo walk marker for FieldOps Atlas.",
    "siteType": "Walk",
    "status": "demo",
    "regionId": "south",
    "lat": 50.599959,
    "lng": -3.336842,
    "what3words": "",
    "accessNotes": "",
    "address": "",
    "gridRef": "",
    "services": [],
    "inputs": [],
    "equipment": [],
    "walkthrough": {
      "type": "",
      "url": "",
      "notes": ""
    }
  },
  {
    "id": "elder-warren-ridge",
    "name": "Elder Warren Ridge",
    "description": "Anonymised public demo walk marker for FieldOps Atlas.",
    "siteType": "Walk",
    "status": "demo",
    "regionId": "south",
    "lat": 51.21512,
    "lng": -1.698608,
    "what3words": "",
    "accessNotes": "",
    "address": "",
    "gridRef": "",
    "services": [],
    "inputs": [],
    "equipment": [],
    "walkthrough": {
      "type": "",
      "url": "",
      "notes": ""
    }
  },
  {
    "id": "old-drift-ridge",
    "name": "Old Drift Ridge",
    "description": "Anonymised public demo walk marker for FieldOps Atlas.",
    "siteType": "Walk",
    "status": "demo",
    "regionId": "south",
    "lat": 50.917702,
    "lng": -0.101085,
    "what3words": "",
    "accessNotes": "",
    "address": "",
    "gridRef": "",
    "services": [],
    "inputs": [],
    "equipment": [],
    "walkthrough": {
      "type": "",
      "url": "",
      "notes": ""
    }
  },
  {
    "id": "elder-dale-path",
    "name": "Elder Dale Path",
    "description": "Anonymised public demo walk marker for FieldOps Atlas.",
    "siteType": "Walk",
    "status": "demo",
    "regionId": "south",
    "lat": 51.362904,
    "lng": -2.520702,
    "what3words": "",
    "accessNotes": "",
    "address": "",
    "gridRef": "",
    "services": [],
    "inputs": [],
    "equipment": [],
    "walkthrough": {
      "type": "",
      "url": "",
      "notes": ""
    }
  },
  {
    "id": "oak-cliff-loop",
    "name": "Oak Cliff Loop",
    "description": "Anonymised public demo walk marker for FieldOps Atlas.",
    "siteType": "Walk",
    "status": "demo",
    "regionId": "south",
    "lat": 51.61539,
    "lng": 0.782047,
    "what3words": "",
    "accessNotes": "",
    "address": "",
    "gridRef": "",
    "services": [],
    "inputs": [],
    "equipment": [],
    "walkthrough": {
      "type": "",
      "url": "",
      "notes": ""
    }
  },
  {
    "id": "bluebell-dale-cave",
    "name": "Bluebell Dale Cave",
    "description": "Anonymised public demo walk marker for FieldOps Atlas.",
    "siteType": "Walk",
    "status": "demo",
    "regionId": "south",
    "lat": 50.927163,
    "lng": -0.604009,
    "what3words": "",
    "accessNotes": "",
    "address": "",
    "gridRef": "",
    "services": [],
    "inputs": [],
    "equipment": [],
    "walkthrough": {
      "type": "",
      "url": "",
      "notes": ""
    }
  },
  {
    "id": "cairn-warren-hollow",
    "name": "Cairn Warren Hollow",
    "description": "Anonymised public demo walk marker for FieldOps Atlas.",
    "siteType": "Walk",
    "status": "demo",
    "regionId": "south",
    "lat": 50.810532,
    "lng": 0.255825,
    "what3words": "",
    "accessNotes": "",
    "address": "",
    "gridRef": "",
    "services": [],
    "inputs": [],
    "equipment": [],
    "walkthrough": {
      "type": "",
      "url": "",
      "notes": ""
    }
  },
  {
    "id": "sparrow-glen-ramble",
    "name": "Sparrow Glen Ramble",
    "description": "Anonymised public demo walk marker for FieldOps Atlas.",
    "siteType": "Walk",
    "status": "demo",
    "regionId": "south",
    "lat": 51.447352,
    "lng": -2.022202,
    "what3words": "",
    "accessNotes": "",
    "address": "",
    "gridRef": "",
    "services": [],
    "inputs": [],
    "equipment": [],
    "walkthrough": {
      "type": "",
      "url": "",
      "notes": ""
    }
  },
  {
    "id": "starling-mill-ramble",
    "name": "Starling Mill Ramble",
    "description": "Anonymised public demo walk marker for FieldOps Atlas.",
    "siteType": "Walk",
    "status": "demo",
    "regionId": "south",
    "lat": 51.068324,
    "lng": -1.86581,
    "what3words": "",
    "accessNotes": "",
    "address": "",
    "gridRef": "",
    "services": [],
    "inputs": [],
    "equipment": [],
    "walkthrough": {
      "type": "",
      "url": "",
      "notes": ""
    }
  },
  {
    "id": "slate-rise-hollow",
    "name": "Slate Rise Hollow",
    "description": "Anonymised public demo walk marker for FieldOps Atlas.",
    "siteType": "Walk",
    "status": "demo",
    "regionId": "south",
    "lat": 51.349227,
    "lng": -0.184879,
    "what3words": "",
    "accessNotes": "",
    "address": "",
    "gridRef": "",
    "services": [],
    "inputs": [],
    "equipment": [],
    "walkthrough": {
      "type": "",
      "url": "",
      "notes": ""
    }
  },
  {
    "id": "hidden-lantern-loop",
    "name": "Hidden Lantern Loop",
    "description": "Anonymised public demo walk marker for FieldOps Atlas.",
    "siteType": "Walk",
    "status": "demo",
    "regionId": "south",
    "lat": 50.775927,
    "lng": -1.919051,
    "what3words": "",
    "accessNotes": "",
    "address": "",
    "gridRef": "",
    "services": [],
    "inputs": [],
    "equipment": [],
    "walkthrough": {
      "type": "",
      "url": "",
      "notes": ""
    }
  },
  {
    "id": "juniper-warren-trail",
    "name": "Juniper Warren Trail",
    "description": "Anonymised public demo walk marker for FieldOps Atlas.",
    "siteType": "Walk",
    "status": "demo",
    "regionId": "south",
    "lat": 51.145869,
    "lng": 1.002591,
    "what3words": "",
    "accessNotes": "",
    "address": "",
    "gridRef": "",
    "services": [],
    "inputs": [],
    "equipment": [],
    "walkthrough": {
      "type": "",
      "url": "",
      "notes": ""
    }
  },
  {
    "id": "stone-arch-ramble",
    "name": "Stone Arch Ramble",
    "description": "Anonymised public demo walk marker for FieldOps Atlas.",
    "siteType": "Walk",
    "status": "demo",
    "regionId": "south",
    "lat": 51.262938,
    "lng": 1.02691,
    "what3words": "",
    "accessNotes": "",
    "address": "",
    "gridRef": "",
    "services": [],
    "inputs": [],
    "equipment": [],
    "walkthrough": {
      "type": "",
      "url": "",
      "notes": ""
    }
  },
  {
    "id": "robin-moss-path",
    "name": "Robin Moss Path",
    "description": "Anonymised public demo walk marker for FieldOps Atlas.",
    "siteType": "Walk",
    "status": "demo",
    "regionId": "south",
    "lat": 50.5338,
    "lng": -4.399202,
    "what3words": "",
    "accessNotes": "",
    "address": "",
    "gridRef": "",
    "services": [],
    "inputs": [],
    "equipment": [],
    "walkthrough": {
      "type": "",
      "url": "",
      "notes": ""
    }
  },
  {
    "id": "honey-haven-hollow",
    "name": "Honey Haven Hollow",
    "description": "Anonymised public demo walk marker for FieldOps Atlas.",
    "siteType": "Walk",
    "status": "demo",
    "regionId": "south",
    "lat": 51.146787,
    "lng": -3.378747,
    "what3words": "",
    "accessNotes": "",
    "address": "",
    "gridRef": "",
    "services": [],
    "inputs": [],
    "equipment": [],
    "walkthrough": {
      "type": "",
      "url": "",
      "notes": ""
    }
  },
  {
    "id": "cedar-cliff-trail",
    "name": "Cedar Cliff Trail",
    "description": "Anonymised public demo walk marker for FieldOps Atlas.",
    "siteType": "Walk",
    "status": "demo",
    "regionId": "south",
    "lat": 51.302282,
    "lng": -0.031801,
    "what3words": "",
    "accessNotes": "",
    "address": "",
    "gridRef": "",
    "services": [],
    "inputs": [],
    "equipment": [],
    "walkthrough": {
      "type": "",
      "url": "",
      "notes": ""
    }
  },
  {
    "id": "misty-lane-loop",
    "name": "Misty Lane Loop",
    "description": "Anonymised public demo walk marker for FieldOps Atlas.",
    "siteType": "Walk",
    "status": "demo",
    "regionId": "south",
    "lat": 51.233089,
    "lng": -0.0717,
    "what3words": "",
    "accessNotes": "",
    "address": "",
    "gridRef": "",
    "services": [],
    "inputs": [],
    "equipment": [],
    "walkthrough": {
      "type": "",
      "url": "",
      "notes": ""
    }
  },
  {
    "id": "river-step-path",
    "name": "River Step Path",
    "description": "Anonymised public demo walk marker for FieldOps Atlas.",
    "siteType": "Walk",
    "status": "demo",
    "regionId": "south",
    "lat": 50.773297,
    "lng": -2.522996,
    "what3words": "",
    "accessNotes": "",
    "address": "",
    "gridRef": "",
    "services": [],
    "inputs": [],
    "equipment": [],
    "walkthrough": {
      "type": "",
      "url": "",
      "notes": ""
    }
  },
  {
    "id": "sparrow-thicket-loop",
    "name": "Sparrow Thicket Loop",
    "description": "Anonymised public demo walk marker for FieldOps Atlas.",
    "siteType": "Walk",
    "status": "demo",
    "regionId": "south",
    "lat": 50.701667,
    "lng": -3.830082,
    "what3words": "",
    "accessNotes": "",
    "address": "",
    "gridRef": "",
    "services": [],
    "inputs": [],
    "equipment": [],
    "walkthrough": {
      "type": "",
      "url": "",
      "notes": ""
    }
  },
  {
    "id": "dove-coast-cave",
    "name": "Dove Coast Cave",
    "description": "Anonymised public demo walk marker for FieldOps Atlas.",
    "siteType": "Walk",
    "status": "demo",
    "regionId": "south",
    "lat": 51.693873,
    "lng": -2.130221,
    "what3words": "",
    "accessNotes": "",
    "address": "",
    "gridRef": "",
    "services": [],
    "inputs": [],
    "equipment": [],
    "walkthrough": {
      "type": "",
      "url": "",
      "notes": ""
    }
  },
  {
    "id": "larch-thicket-trail",
    "name": "Larch Thicket Trail",
    "description": "Anonymised public demo walk marker for FieldOps Atlas.",
    "siteType": "Walk",
    "status": "demo",
    "regionId": "south",
    "lat": 51.704306,
    "lng": -2.192481,
    "what3words": "",
    "accessNotes": "",
    "address": "",
    "gridRef": "",
    "services": [],
    "inputs": [],
    "equipment": [],
    "walkthrough": {
      "type": "",
      "url": "",
      "notes": ""
    }
  },
  {
    "id": "green-dell-cave",
    "name": "Green Dell Cave",
    "description": "Anonymised public demo walk marker for FieldOps Atlas.",
    "siteType": "Walk",
    "status": "demo",
    "regionId": "south",
    "lat": 51.229878,
    "lng": -4.077818,
    "what3words": "",
    "accessNotes": "",
    "address": "",
    "gridRef": "",
    "services": [],
    "inputs": [],
    "equipment": [],
    "walkthrough": {
      "type": "",
      "url": "",
      "notes": ""
    }
  },
  {
    "id": "brook-basin-cave",
    "name": "Brook Basin Cave",
    "description": "Anonymised public demo walk marker for FieldOps Atlas.",
    "siteType": "Walk",
    "status": "demo",
    "regionId": "south",
    "lat": 50.906891,
    "lng": -2.93524,
    "what3words": "",
    "accessNotes": "",
    "address": "",
    "gridRef": "",
    "services": [],
    "inputs": [],
    "equipment": [],
    "walkthrough": {
      "type": "",
      "url": "",
      "notes": ""
    }
  },
  {
    "id": "field-mill-trail",
    "name": "Field Mill Trail",
    "description": "Anonymised public demo walk marker for FieldOps Atlas.",
    "siteType": "Walk",
    "status": "demo",
    "regionId": "south",
    "lat": 51.247062,
    "lng": 0.783022,
    "what3words": "",
    "accessNotes": "",
    "address": "",
    "gridRef": "",
    "services": [],
    "inputs": [],
    "equipment": [],
    "walkthrough": {
      "type": "",
      "url": "",
      "notes": ""
    }
  },
  {
    "id": "woodland-tor-cave",
    "name": "Woodland Tor Cave",
    "description": "Anonymised public demo walk marker for FieldOps Atlas.",
    "siteType": "Walk",
    "status": "demo",
    "regionId": "south",
    "lat": 50.976849,
    "lng": -2.516619,
    "what3words": "",
    "accessNotes": "",
    "address": "",
    "gridRef": "",
    "services": [],
    "inputs": [],
    "equipment": [],
    "walkthrough": {
      "type": "",
      "url": "",
      "notes": ""
    }
  },
  {
    "id": "honey-spring-ramble",
    "name": "Honey Spring Ramble",
    "description": "Anonymised public demo walk marker for FieldOps Atlas.",
    "siteType": "Walk",
    "status": "demo",
    "regionId": "south",
    "lat": 50.762075,
    "lng": -2.90869,
    "what3words": "",
    "accessNotes": "",
    "address": "",
    "gridRef": "",
    "services": [],
    "inputs": [],
    "equipment": [],
    "walkthrough": {
      "type": "",
      "url": "",
      "notes": ""
    }
  },
  {
    "id": "holly-path-ridge",
    "name": "Holly Path Ridge",
    "description": "Anonymised public demo walk marker for FieldOps Atlas.",
    "siteType": "Walk",
    "status": "demo",
    "regionId": "south",
    "lat": 51.250272,
    "lng": 0.987236,
    "what3words": "",
    "accessNotes": "",
    "address": "",
    "gridRef": "",
    "services": [],
    "inputs": [],
    "equipment": [],
    "walkthrough": {
      "type": "",
      "url": "",
      "notes": ""
    }
  },
  {
    "id": "bramble-gate-loop",
    "name": "Bramble Gate Loop",
    "description": "Anonymised public demo walk marker for FieldOps Atlas.",
    "siteType": "Walk",
    "status": "demo",
    "regionId": "south",
    "lat": 51.362142,
    "lng": 0.576904,
    "what3words": "",
    "accessNotes": "",
    "address": "",
    "gridRef": "",
    "services": [],
    "inputs": [],
    "equipment": [],
    "walkthrough": {
      "type": "",
      "url": "",
      "notes": ""
    }
  },
  {
    "id": "heather-crossing-ridge",
    "name": "Heather Crossing Ridge",
    "description": "Anonymised public demo walk marker for FieldOps Atlas.",
    "siteType": "Walk",
    "status": "demo",
    "regionId": "south",
    "lat": 50.804125,
    "lng": -2.692403,
    "what3words": "",
    "accessNotes": "",
    "address": "",
    "gridRef": "",
    "services": [],
    "inputs": [],
    "equipment": [],
    "walkthrough": {
      "type": "",
      "url": "",
      "notes": ""
    }
  },
  {
    "id": "dove-meadow-loop",
    "name": "Dove Meadow Loop",
    "description": "Anonymised public demo walk marker for FieldOps Atlas.",
    "siteType": "Walk",
    "status": "demo",
    "regionId": "south",
    "lat": 51.685731,
    "lng": 0.498031,
    "what3words": "",
    "accessNotes": "",
    "address": "",
    "gridRef": "",
    "services": [],
    "inputs": [],
    "equipment": [],
    "walkthrough": {
      "type": "",
      "url": "",
      "notes": ""
    }
  },
  {
    "id": "autumn-way-walk",
    "name": "Autumn Way Walk",
    "description": "Anonymised public demo walk marker for FieldOps Atlas.",
    "siteType": "Walk",
    "status": "demo",
    "regionId": "south",
    "lat": 51.747549,
    "lng": 0.512338,
    "what3words": "",
    "accessNotes": "",
    "address": "",
    "gridRef": "",
    "services": [],
    "inputs": [],
    "equipment": [],
    "walkthrough": {
      "type": "",
      "url": "",
      "notes": ""
    }
  },
  {
    "id": "green-lane-loop",
    "name": "Green Lane Loop",
    "description": "Anonymised public demo walk marker for FieldOps Atlas.",
    "siteType": "Walk",
    "status": "demo",
    "regionId": "south",
    "lat": 51.574532,
    "lng": -0.705456,
    "what3words": "",
    "accessNotes": "",
    "address": "",
    "gridRef": "",
    "services": [],
    "inputs": [],
    "equipment": [],
    "walkthrough": {
      "type": "",
      "url": "",
      "notes": ""
    }
  },
  {
    "id": "iron-cove-ramble",
    "name": "Iron Cove Ramble",
    "description": "Anonymised public demo walk marker for FieldOps Atlas.",
    "siteType": "Walk",
    "status": "demo",
    "regionId": "south",
    "lat": 50.763735,
    "lng": -2.357259,
    "what3words": "",
    "accessNotes": "",
    "address": "",
    "gridRef": "",
    "services": [],
    "inputs": [],
    "equipment": [],
    "walkthrough": {
      "type": "",
      "url": "",
      "notes": ""
    }
  },
  {
    "id": "elm-stone-ramble",
    "name": "Elm Stone Ramble",
    "description": "Anonymised public demo walk marker for FieldOps Atlas.",
    "siteType": "Walk",
    "status": "demo",
    "regionId": "south",
    "lat": 51.660165,
    "lng": -0.662127,
    "what3words": "",
    "accessNotes": "",
    "address": "",
    "gridRef": "",
    "services": [],
    "inputs": [],
    "equipment": [],
    "walkthrough": {
      "type": "",
      "url": "",
      "notes": ""
    }
  },
  {
    "id": "bramble-moss-trail",
    "name": "Bramble Moss Trail",
    "description": "Anonymised public demo walk marker for FieldOps Atlas.",
    "siteType": "Walk",
    "status": "demo",
    "regionId": "south",
    "lat": 50.810375,
    "lng": -0.811561,
    "what3words": "",
    "accessNotes": "",
    "address": "",
    "gridRef": "",
    "services": [],
    "inputs": [],
    "equipment": [],
    "walkthrough": {
      "type": "",
      "url": "",
      "notes": ""
    }
  },
  {
    "id": "water-ledge-cave",
    "name": "Water Ledge Cave",
    "description": "Anonymised public demo walk marker for FieldOps Atlas.",
    "siteType": "Walk",
    "status": "demo",
    "regionId": "south",
    "lat": 50.709181,
    "lng": -2.790521,
    "what3words": "",
    "accessNotes": "",
    "address": "",
    "gridRef": "",
    "services": [],
    "inputs": [],
    "equipment": [],
    "walkthrough": {
      "type": "",
      "url": "",
      "notes": ""
    }
  },
  {
    "id": "maple-shelf-path",
    "name": "Maple Shelf Path",
    "description": "Anonymised public demo walk marker for FieldOps Atlas.",
    "siteType": "Walk",
    "status": "demo",
    "regionId": "south",
    "lat": 50.714165,
    "lng": -2.793665,
    "what3words": "",
    "accessNotes": "",
    "address": "",
    "gridRef": "",
    "services": [],
    "inputs": [],
    "equipment": [],
    "walkthrough": {
      "type": "",
      "url": "",
      "notes": ""
    }
  },
  {
    "id": "elm-path-path",
    "name": "Elm Path Path",
    "description": "Anonymised public demo walk marker for FieldOps Atlas.",
    "siteType": "Walk",
    "status": "demo",
    "regionId": "south",
    "lat": 50.761166,
    "lng": -2.558414,
    "what3words": "",
    "accessNotes": "",
    "address": "",
    "gridRef": "",
    "services": [],
    "inputs": [],
    "equipment": [],
    "walkthrough": {
      "type": "",
      "url": "",
      "notes": ""
    }
  },
  {
    "id": "twilight-scar-path",
    "name": "Twilight Scar Path",
    "description": "Anonymised public demo walk marker for FieldOps Atlas.",
    "siteType": "Walk",
    "status": "demo",
    "regionId": "south",
    "lat": 50.663856,
    "lng": -1.288975,
    "what3words": "",
    "accessNotes": "",
    "address": "",
    "gridRef": "",
    "services": [],
    "inputs": [],
    "equipment": [],
    "walkthrough": {
      "type": "",
      "url": "",
      "notes": ""
    }
  },
  {
    "id": "deep-drift-trail",
    "name": "Deep Drift Trail",
    "description": "Anonymised public demo walk marker for FieldOps Atlas.",
    "siteType": "Walk",
    "status": "demo",
    "regionId": "south",
    "lat": 50.93389,
    "lng": -1.453326,
    "what3words": "",
    "accessNotes": "",
    "address": "",
    "gridRef": "",
    "services": [],
    "inputs": [],
    "equipment": [],
    "walkthrough": {
      "type": "",
      "url": "",
      "notes": ""
    }
  },
  {
    "id": "harbour-basin-hollow",
    "name": "Harbour Basin Hollow",
    "description": "Anonymised public demo walk marker for FieldOps Atlas.",
    "siteType": "Walk",
    "status": "demo",
    "regionId": "south",
    "lat": 51.648622,
    "lng": 0.023992,
    "what3words": "",
    "accessNotes": "",
    "address": "",
    "gridRef": "",
    "services": [],
    "inputs": [],
    "equipment": [],
    "walkthrough": {
      "type": "",
      "url": "",
      "notes": ""
    }
  },
  {
    "id": "soft-copse-walk",
    "name": "Soft Copse Walk",
    "description": "Anonymised public demo walk marker for FieldOps Atlas.",
    "siteType": "Walk",
    "status": "demo",
    "regionId": "south",
    "lat": 51.450205,
    "lng": -2.144468,
    "what3words": "",
    "accessNotes": "",
    "address": "",
    "gridRef": "",
    "services": [],
    "inputs": [],
    "equipment": [],
    "walkthrough": {
      "type": "",
      "url": "",
      "notes": ""
    }
  },
  {
    "id": "sparrow-lane-path",
    "name": "Sparrow Lane Path",
    "description": "Anonymised public demo walk marker for FieldOps Atlas.",
    "siteType": "Walk",
    "status": "demo",
    "regionId": "south",
    "lat": 51.404727,
    "lng": -1.588953,
    "what3words": "",
    "accessNotes": "",
    "address": "",
    "gridRef": "",
    "services": [],
    "inputs": [],
    "equipment": [],
    "walkthrough": {
      "type": "",
      "url": "",
      "notes": ""
    }
  },
  {
    "id": "drift-vale-ramble",
    "name": "Drift Vale Ramble",
    "description": "Anonymised public demo walk marker for FieldOps Atlas.",
    "siteType": "Walk",
    "status": "demo",
    "regionId": "south",
    "lat": 51.554441,
    "lng": -1.704964,
    "what3words": "",
    "accessNotes": "",
    "address": "",
    "gridRef": "",
    "services": [],
    "inputs": [],
    "equipment": [],
    "walkthrough": {
      "type": "",
      "url": "",
      "notes": ""
    }
  },
  {
    "id": "stone-haven-trail",
    "name": "Stone Haven Trail",
    "description": "Anonymised public demo walk marker for FieldOps Atlas.",
    "siteType": "Walk",
    "status": "demo",
    "regionId": "south",
    "lat": 51.210808,
    "lng": -2.04404,
    "what3words": "",
    "accessNotes": "",
    "address": "",
    "gridRef": "",
    "services": [],
    "inputs": [],
    "equipment": [],
    "walkthrough": {
      "type": "",
      "url": "",
      "notes": ""
    }
  },
  {
    "id": "misty-harbour-ramble",
    "name": "Misty Harbour Ramble",
    "description": "Anonymised public demo walk marker for FieldOps Atlas.",
    "siteType": "Walk",
    "status": "demo",
    "regionId": "south",
    "lat": 50.623491,
    "lng": -3.608058,
    "what3words": "",
    "accessNotes": "",
    "address": "",
    "gridRef": "",
    "services": [],
    "inputs": [],
    "equipment": [],
    "walkthrough": {
      "type": "",
      "url": "",
      "notes": ""
    }
  },
  {
    "id": "summer-hollow-path",
    "name": "Summer Hollow Path",
    "description": "Anonymised public demo walk marker for FieldOps Atlas.",
    "siteType": "Walk",
    "status": "demo",
    "regionId": "south",
    "lat": 51.698517,
    "lng": 0.591245,
    "what3words": "",
    "accessNotes": "",
    "address": "",
    "gridRef": "",
    "services": [],
    "inputs": [],
    "equipment": [],
    "walkthrough": {
      "type": "",
      "url": "",
      "notes": ""
    }
  },
  {
    "id": "field-valley-loop",
    "name": "Field Valley Loop",
    "description": "Anonymised public demo walk marker for FieldOps Atlas.",
    "siteType": "Walk",
    "status": "demo",
    "regionId": "south",
    "lat": 51.691452,
    "lng": -2.010299,
    "what3words": "",
    "accessNotes": "",
    "address": "",
    "gridRef": "",
    "services": [],
    "inputs": [],
    "equipment": [],
    "walkthrough": {
      "type": "",
      "url": "",
      "notes": ""
    }
  },
  {
    "id": "maple-crossing-cave",
    "name": "Maple Crossing Cave",
    "description": "Anonymised public demo walk marker for FieldOps Atlas.",
    "siteType": "Walk",
    "status": "demo",
    "regionId": "south",
    "lat": 51.318367,
    "lng": -2.492934,
    "what3words": "",
    "accessNotes": "",
    "address": "",
    "gridRef": "",
    "services": [],
    "inputs": [],
    "equipment": [],
    "walkthrough": {
      "type": "",
      "url": "",
      "notes": ""
    }
  },
  {
    "id": "cairn-stream-ramble",
    "name": "Cairn Stream Ramble",
    "description": "Anonymised public demo walk marker for FieldOps Atlas.",
    "siteType": "Walk",
    "status": "demo",
    "regionId": "south",
    "lat": 50.445319,
    "lng": -3.52645,
    "what3words": "",
    "accessNotes": "",
    "address": "",
    "gridRef": "",
    "services": [],
    "inputs": [],
    "equipment": [],
    "walkthrough": {
      "type": "",
      "url": "",
      "notes": ""
    }
  },
  {
    "id": "old-mill-path",
    "name": "Old Mill Path",
    "description": "Anonymised public demo walk marker for FieldOps Atlas.",
    "siteType": "Walk",
    "status": "demo",
    "regionId": "south",
    "lat": 50.891985,
    "lng": -2.663055,
    "what3words": "",
    "accessNotes": "",
    "address": "",
    "gridRef": "",
    "services": [],
    "inputs": [],
    "equipment": [],
    "walkthrough": {
      "type": "",
      "url": "",
      "notes": ""
    }
  },
  {
    "id": "drift-crossing-ramble",
    "name": "Drift Crossing Ramble",
    "description": "Anonymised public demo walk marker for FieldOps Atlas.",
    "siteType": "Walk",
    "status": "demo",
    "regionId": "south",
    "lat": 50.82353,
    "lng": -0.132408,
    "what3words": "",
    "accessNotes": "",
    "address": "",
    "gridRef": "",
    "services": [],
    "inputs": [],
    "equipment": [],
    "walkthrough": {
      "type": "",
      "url": "",
      "notes": ""
    }
  },
  {
    "id": "quiet-basin-cave",
    "name": "Quiet Basin Cave",
    "description": "Anonymised public demo walk marker for FieldOps Atlas.",
    "siteType": "Walk",
    "status": "demo",
    "regionId": "south",
    "lat": 51.569794,
    "lng": -0.235463,
    "what3words": "",
    "accessNotes": "",
    "address": "",
    "gridRef": "",
    "services": [],
    "inputs": [],
    "equipment": [],
    "walkthrough": {
      "type": "",
      "url": "",
      "notes": ""
    }
  },
  {
    "id": "sandy-ladder-path",
    "name": "Sandy Ladder Path",
    "description": "Anonymised public demo walk marker for FieldOps Atlas.",
    "siteType": "Walk",
    "status": "demo",
    "regionId": "south",
    "lat": 51.233634,
    "lng": -4.003038,
    "what3words": "",
    "accessNotes": "",
    "address": "",
    "gridRef": "",
    "services": [],
    "inputs": [],
    "equipment": [],
    "walkthrough": {
      "type": "",
      "url": "",
      "notes": ""
    }
  },
  {
    "id": "cinder-ridge-walk",
    "name": "Cinder Ridge Walk",
    "description": "Anonymised public demo walk marker for FieldOps Atlas.",
    "siteType": "Walk",
    "status": "demo",
    "regionId": "south",
    "lat": 50.354138,
    "lng": -4.097968,
    "what3words": "",
    "accessNotes": "",
    "address": "",
    "gridRef": "",
    "services": [],
    "inputs": [],
    "equipment": [],
    "walkthrough": {
      "type": "",
      "url": "",
      "notes": ""
    }
  },
  {
    "id": "harbour-loop-ridge",
    "name": "Harbour Loop Ridge",
    "description": "Anonymised public demo walk marker for FieldOps Atlas.",
    "siteType": "Walk",
    "status": "demo",
    "regionId": "south",
    "lat": 50.57114,
    "lng": -3.540416,
    "what3words": "",
    "accessNotes": "",
    "address": "",
    "gridRef": "",
    "services": [],
    "inputs": [],
    "equipment": [],
    "walkthrough": {
      "type": "",
      "url": "",
      "notes": ""
    }
  },
  {
    "id": "winter-loop-ramble",
    "name": "Winter Loop Ramble",
    "description": "Anonymised public demo walk marker for FieldOps Atlas.",
    "siteType": "Walk",
    "status": "demo",
    "regionId": "south",
    "lat": 51.440462,
    "lng": -0.765728,
    "what3words": "",
    "accessNotes": "",
    "address": "",
    "gridRef": "",
    "services": [],
    "inputs": [],
    "equipment": [],
    "walkthrough": {
      "type": "",
      "url": "",
      "notes": ""
    }
  },
  {
    "id": "dusk-moor-path",
    "name": "Dusk Moor Path",
    "description": "Anonymised public demo walk marker for FieldOps Atlas.",
    "siteType": "Walk",
    "status": "demo",
    "regionId": "south",
    "lat": 50.667306,
    "lng": -2.001508,
    "what3words": "",
    "accessNotes": "",
    "address": "",
    "gridRef": "",
    "services": [],
    "inputs": [],
    "equipment": [],
    "walkthrough": {
      "type": "",
      "url": "",
      "notes": ""
    }
  },
  {
    "id": "shadow-grove-ramble",
    "name": "Shadow Grove Ramble",
    "description": "Anonymised public demo walk marker for FieldOps Atlas.",
    "siteType": "Walk",
    "status": "demo",
    "regionId": "south",
    "lat": 51.41391,
    "lng": -2.160869,
    "what3words": "",
    "accessNotes": "",
    "address": "",
    "gridRef": "",
    "services": [],
    "inputs": [],
    "equipment": [],
    "walkthrough": {
      "type": "",
      "url": "",
      "notes": ""
    }
  },
  {
    "id": "fern-lantern-path",
    "name": "Fern Lantern Path",
    "description": "Anonymised public demo walk marker for FieldOps Atlas.",
    "siteType": "Walk",
    "status": "demo",
    "regionId": "south",
    "lat": 51.466552,
    "lng": -2.212803,
    "what3words": "",
    "accessNotes": "",
    "address": "",
    "gridRef": "",
    "services": [],
    "inputs": [],
    "equipment": [],
    "walkthrough": {
      "type": "",
      "url": "",
      "notes": ""
    }
  },
  {
    "id": "winter-rise-hollow",
    "name": "Winter Rise Hollow",
    "description": "Anonymised public demo walk marker for FieldOps Atlas.",
    "siteType": "Walk",
    "status": "demo",
    "regionId": "south",
    "lat": 51.271858,
    "lng": -3.773181,
    "what3words": "",
    "accessNotes": "",
    "address": "",
    "gridRef": "",
    "services": [],
    "inputs": [],
    "equipment": [],
    "walkthrough": {
      "type": "",
      "url": "",
      "notes": ""
    }
  },
  {
    "id": "dawn-wood-hollow",
    "name": "Dawn Wood Hollow",
    "description": "Anonymised public demo walk marker for FieldOps Atlas.",
    "siteType": "Walk",
    "status": "demo",
    "regionId": "south",
    "lat": 50.738069,
    "lng": -1.273524,
    "what3words": "",
    "accessNotes": "",
    "address": "",
    "gridRef": "",
    "services": [],
    "inputs": [],
    "equipment": [],
    "walkthrough": {
      "type": "",
      "url": "",
      "notes": ""
    }
  },
  {
    "id": "flint-mill-hollow",
    "name": "Flint Mill Hollow",
    "description": "Anonymised public demo walk marker for FieldOps Atlas.",
    "siteType": "Walk",
    "status": "demo",
    "regionId": "south",
    "lat": 51.04867,
    "lng": -1.384583,
    "what3words": "",
    "accessNotes": "",
    "address": "",
    "gridRef": "",
    "services": [],
    "inputs": [],
    "equipment": [],
    "walkthrough": {
      "type": "",
      "url": "",
      "notes": ""
    }
  },
  {
    "id": "iron-warren-trail",
    "name": "Iron Warren Trail",
    "description": "Anonymised public demo walk marker for FieldOps Atlas.",
    "siteType": "Walk",
    "status": "demo",
    "regionId": "south",
    "lat": 51.044009,
    "lng": -1.337595,
    "what3words": "",
    "accessNotes": "",
    "address": "",
    "gridRef": "",
    "services": [],
    "inputs": [],
    "equipment": [],
    "walkthrough": {
      "type": "",
      "url": "",
      "notes": ""
    }
  },
  {
    "id": "slate-warren-loop",
    "name": "Slate Warren Loop",
    "description": "Anonymised public demo walk marker for FieldOps Atlas.",
    "siteType": "Walk",
    "status": "demo",
    "regionId": "south",
    "lat": 50.731547,
    "lng": -3.438695,
    "what3words": "",
    "accessNotes": "",
    "address": "",
    "gridRef": "",
    "services": [],
    "inputs": [],
    "equipment": [],
    "walkthrough": {
      "type": "",
      "url": "",
      "notes": ""
    }
  },
  {
    "id": "maple-crossing-ramble",
    "name": "Maple Crossing Ramble",
    "description": "Anonymised public demo walk marker for FieldOps Atlas.",
    "siteType": "Walk",
    "status": "demo",
    "regionId": "south",
    "lat": 50.85394,
    "lng": -1.921222,
    "what3words": "",
    "accessNotes": "",
    "address": "",
    "gridRef": "",
    "services": [],
    "inputs": [],
    "equipment": [],
    "walkthrough": {
      "type": "",
      "url": "",
      "notes": ""
    }
  },
  {
    "id": "ivy-well-path",
    "name": "Ivy Well Path",
    "description": "Anonymised public demo walk marker for FieldOps Atlas.",
    "siteType": "Walk",
    "status": "demo",
    "regionId": "south",
    "lat": 50.770126,
    "lng": -3.697441,
    "what3words": "",
    "accessNotes": "",
    "address": "",
    "gridRef": "",
    "services": [],
    "inputs": [],
    "equipment": [],
    "walkthrough": {
      "type": "",
      "url": "",
      "notes": ""
    }
  },
  {
    "id": "green-step-ramble",
    "name": "Green Step Ramble",
    "description": "Anonymised public demo walk marker for FieldOps Atlas.",
    "siteType": "Walk",
    "status": "demo",
    "regionId": "south",
    "lat": 51.069771,
    "lng": 1.151076,
    "what3words": "",
    "accessNotes": "",
    "address": "",
    "gridRef": "",
    "services": [],
    "inputs": [],
    "equipment": [],
    "walkthrough": {
      "type": "",
      "url": "",
      "notes": ""
    }
  },
  {
    "id": "reed-scar-hollow",
    "name": "Reed Scar Hollow",
    "description": "Anonymised public demo walk marker for FieldOps Atlas.",
    "siteType": "Walk",
    "status": "demo",
    "regionId": "south",
    "lat": 50.906885,
    "lng": -2.772372,
    "what3words": "",
    "accessNotes": "",
    "address": "",
    "gridRef": "",
    "services": [],
    "inputs": [],
    "equipment": [],
    "walkthrough": {
      "type": "",
      "url": "",
      "notes": ""
    }
  },
  {
    "id": "hidden-trail-loop",
    "name": "Hidden Trail Loop",
    "description": "Anonymised public demo walk marker for FieldOps Atlas.",
    "siteType": "Walk",
    "status": "demo",
    "regionId": "south",
    "lat": 50.90465,
    "lng": -2.938337,
    "what3words": "",
    "accessNotes": "",
    "address": "",
    "gridRef": "",
    "services": [],
    "inputs": [],
    "equipment": [],
    "walkthrough": {
      "type": "",
      "url": "",
      "notes": ""
    }
  },
  {
    "id": "moon-gate-walk",
    "name": "Moon Gate Walk",
    "description": "Anonymised public demo walk marker for FieldOps Atlas.",
    "siteType": "Walk",
    "status": "demo",
    "regionId": "south",
    "lat": 51.202262,
    "lng": -2.151957,
    "what3words": "",
    "accessNotes": "",
    "address": "",
    "gridRef": "",
    "services": [],
    "inputs": [],
    "equipment": [],
    "walkthrough": {
      "type": "",
      "url": "",
      "notes": ""
    }
  },
  {
    "id": "slate-crossing-walk",
    "name": "Slate Crossing Walk",
    "description": "Anonymised public demo walk marker for FieldOps Atlas.",
    "siteType": "Walk",
    "status": "demo",
    "regionId": "south",
    "lat": 51.035747,
    "lng": 0.20157,
    "what3words": "",
    "accessNotes": "",
    "address": "",
    "gridRef": "",
    "services": [],
    "inputs": [],
    "equipment": [],
    "walkthrough": {
      "type": "",
      "url": "",
      "notes": ""
    }
  },
  {
    "id": "woodland-burrow-hollow",
    "name": "Woodland Burrow Hollow",
    "description": "Anonymised public demo walk marker for FieldOps Atlas.",
    "siteType": "Walk",
    "status": "demo",
    "regionId": "south",
    "lat": 51.150761,
    "lng": -4.263087,
    "what3words": "",
    "accessNotes": "",
    "address": "",
    "gridRef": "",
    "services": [],
    "inputs": [],
    "equipment": [],
    "walkthrough": {
      "type": "",
      "url": "",
      "notes": ""
    }
  },
  {
    "id": "frost-view-cave",
    "name": "Frost View Cave",
    "description": "Anonymised public demo walk marker for FieldOps Atlas.",
    "siteType": "Walk",
    "status": "demo",
    "regionId": "south",
    "lat": 51.434631,
    "lng": -0.100564,
    "what3words": "",
    "accessNotes": "",
    "address": "",
    "gridRef": "",
    "services": [],
    "inputs": [],
    "equipment": [],
    "walkthrough": {
      "type": "",
      "url": "",
      "notes": ""
    }
  },
  {
    "id": "fern-cliff-cave",
    "name": "Fern Cliff Cave",
    "description": "Anonymised public demo walk marker for FieldOps Atlas.",
    "siteType": "Walk",
    "status": "demo",
    "regionId": "south",
    "lat": 51.442227,
    "lng": -0.138098,
    "what3words": "",
    "accessNotes": "",
    "address": "",
    "gridRef": "",
    "services": [],
    "inputs": [],
    "equipment": [],
    "walkthrough": {
      "type": "",
      "url": "",
      "notes": ""
    }
  },
  {
    "id": "woodland-dell-loop",
    "name": "Woodland Dell Loop",
    "description": "Anonymised public demo walk marker for FieldOps Atlas.",
    "siteType": "Walk",
    "status": "demo",
    "regionId": "south",
    "lat": 51.344059,
    "lng": -0.12985,
    "what3words": "",
    "accessNotes": "",
    "address": "",
    "gridRef": "",
    "services": [],
    "inputs": [],
    "equipment": [],
    "walkthrough": {
      "type": "",
      "url": "",
      "notes": ""
    }
  },
  {
    "id": "moon-crossing-path",
    "name": "Moon Crossing Path",
    "description": "Anonymised public demo walk marker for FieldOps Atlas.",
    "siteType": "Walk",
    "status": "demo",
    "regionId": "south",
    "lat": 51.384986,
    "lng": -0.142257,
    "what3words": "",
    "accessNotes": "",
    "address": "",
    "gridRef": "",
    "services": [],
    "inputs": [],
    "equipment": [],
    "walkthrough": {
      "type": "",
      "url": "",
      "notes": ""
    }
  },
  {
    "id": "foxglove-glen-ridge",
    "name": "Foxglove Glen Ridge",
    "description": "Anonymised public demo walk marker for FieldOps Atlas.",
    "siteType": "Walk",
    "status": "demo",
    "regionId": "south",
    "lat": 51.334965,
    "lng": -0.060635,
    "what3words": "",
    "accessNotes": "",
    "address": "",
    "gridRef": "",
    "services": [],
    "inputs": [],
    "equipment": [],
    "walkthrough": {
      "type": "",
      "url": "",
      "notes": ""
    }
  },
  {
    "id": "bracken-basin-trail",
    "name": "Bracken Basin Trail",
    "description": "Anonymised public demo walk marker for FieldOps Atlas.",
    "siteType": "Walk",
    "status": "demo",
    "regionId": "south",
    "lat": 51.451591,
    "lng": -0.053418,
    "what3words": "",
    "accessNotes": "",
    "address": "",
    "gridRef": "",
    "services": [],
    "inputs": [],
    "equipment": [],
    "walkthrough": {
      "type": "",
      "url": "",
      "notes": ""
    }
  },
  {
    "id": "bright-path-ramble",
    "name": "Bright Path Ramble",
    "description": "Anonymised public demo walk marker for FieldOps Atlas.",
    "siteType": "Walk",
    "status": "demo",
    "regionId": "south",
    "lat": 50.94534,
    "lng": -3.248908,
    "what3words": "",
    "accessNotes": "",
    "address": "",
    "gridRef": "",
    "services": [],
    "inputs": [],
    "equipment": [],
    "walkthrough": {
      "type": "",
      "url": "",
      "notes": ""
    }
  },
  {
    "id": "river-burrow-path",
    "name": "River Burrow Path",
    "description": "Anonymised public demo walk marker for FieldOps Atlas.",
    "siteType": "Walk",
    "status": "demo",
    "regionId": "south",
    "lat": 51.700333,
    "lng": 0.554266,
    "what3words": "",
    "accessNotes": "",
    "address": "",
    "gridRef": "",
    "services": [],
    "inputs": [],
    "equipment": [],
    "walkthrough": {
      "type": "",
      "url": "",
      "notes": ""
    }
  },
  {
    "id": "oak-glen-loop",
    "name": "Oak Glen Loop",
    "description": "Anonymised public demo walk marker for FieldOps Atlas.",
    "siteType": "Walk",
    "status": "demo",
    "regionId": "south",
    "lat": 51.497901,
    "lng": 0.221959,
    "what3words": "",
    "accessNotes": "",
    "address": "",
    "gridRef": "",
    "services": [],
    "inputs": [],
    "equipment": [],
    "walkthrough": {
      "type": "",
      "url": "",
      "notes": ""
    }
  },
  {
    "id": "meadow-scar-loop",
    "name": "Meadow Scar Loop",
    "description": "Anonymised public demo walk marker for FieldOps Atlas.",
    "siteType": "Walk",
    "status": "demo",
    "regionId": "south",
    "lat": 50.424868,
    "lng": -3.665659,
    "what3words": "",
    "accessNotes": "",
    "address": "",
    "gridRef": "",
    "services": [],
    "inputs": [],
    "equipment": [],
    "walkthrough": {
      "type": "",
      "url": "",
      "notes": ""
    }
  },
  {
    "id": "woodland-spring-walk",
    "name": "Woodland Spring Walk",
    "description": "Anonymised public demo walk marker for FieldOps Atlas.",
    "siteType": "Walk",
    "status": "demo",
    "regionId": "south",
    "lat": 50.332159,
    "lng": -3.557597,
    "what3words": "",
    "accessNotes": "",
    "address": "",
    "gridRef": "",
    "services": [],
    "inputs": [],
    "equipment": [],
    "walkthrough": {
      "type": "",
      "url": "",
      "notes": ""
    }
  },
  {
    "id": "hazel-spring-path",
    "name": "Hazel Spring Path",
    "description": "Anonymised public demo walk marker for FieldOps Atlas.",
    "siteType": "Walk",
    "status": "demo",
    "regionId": "south",
    "lat": 50.373896,
    "lng": -3.57002,
    "what3words": "",
    "accessNotes": "",
    "address": "",
    "gridRef": "",
    "services": [],
    "inputs": [],
    "equipment": [],
    "walkthrough": {
      "type": "",
      "url": "",
      "notes": ""
    }
  },
  {
    "id": "emerald-crossing-walk",
    "name": "Emerald Crossing Walk",
    "description": "Anonymised public demo walk marker for FieldOps Atlas.",
    "siteType": "Walk",
    "status": "demo",
    "regionId": "south",
    "lat": 50.624719,
    "lng": -3.444784,
    "what3words": "",
    "accessNotes": "",
    "address": "",
    "gridRef": "",
    "services": [],
    "inputs": [],
    "equipment": [],
    "walkthrough": {
      "type": "",
      "url": "",
      "notes": ""
    }
  },
  {
    "id": "ivy-stream-hollow",
    "name": "Ivy Stream Hollow",
    "description": "Anonymised public demo walk marker for FieldOps Atlas.",
    "siteType": "Walk",
    "status": "demo",
    "regionId": "south",
    "lat": 50.394687,
    "lng": -4.100472,
    "what3words": "",
    "accessNotes": "",
    "address": "",
    "gridRef": "",
    "services": [],
    "inputs": [],
    "equipment": [],
    "walkthrough": {
      "type": "",
      "url": "",
      "notes": ""
    }
  },
  {
    "id": "little-brook-cave",
    "name": "Little Brook Cave",
    "description": "Anonymised public demo walk marker for FieldOps Atlas.",
    "siteType": "Walk",
    "status": "demo",
    "regionId": "south",
    "lat": 51.333027,
    "lng": -1.98179,
    "what3words": "",
    "accessNotes": "",
    "address": "",
    "gridRef": "",
    "services": [],
    "inputs": [],
    "equipment": [],
    "walkthrough": {
      "type": "",
      "url": "",
      "notes": ""
    }
  },
  {
    "id": "dawn-lane-cave",
    "name": "Dawn Lane Cave",
    "description": "Anonymised public demo walk marker for FieldOps Atlas.",
    "siteType": "Walk",
    "status": "demo",
    "regionId": "south",
    "lat": 51.020376,
    "lng": -2.101053,
    "what3words": "",
    "accessNotes": "",
    "address": "",
    "gridRef": "",
    "services": [],
    "inputs": [],
    "equipment": [],
    "walkthrough": {
      "type": "",
      "url": "",
      "notes": ""
    }
  },
  {
    "id": "dusk-trail-hollow",
    "name": "Dusk Trail Hollow",
    "description": "Anonymised public demo walk marker for FieldOps Atlas.",
    "siteType": "Walk",
    "status": "demo",
    "regionId": "south",
    "lat": 51.238959,
    "lng": -0.284365,
    "what3words": "",
    "accessNotes": "",
    "address": "",
    "gridRef": "",
    "services": [],
    "inputs": [],
    "equipment": [],
    "walkthrough": {
      "type": "",
      "url": "",
      "notes": ""
    }
  },
  {
    "id": "quiet-cliff-trail",
    "name": "Quiet Cliff Trail",
    "description": "Anonymised public demo walk marker for FieldOps Atlas.",
    "siteType": "Walk",
    "status": "demo",
    "regionId": "south",
    "lat": 51.299819,
    "lng": -0.786768,
    "what3words": "",
    "accessNotes": "",
    "address": "",
    "gridRef": "",
    "services": [],
    "inputs": [],
    "equipment": [],
    "walkthrough": {
      "type": "",
      "url": "",
      "notes": ""
    }
  },
  {
    "id": "dawn-basin-cave",
    "name": "Dawn Basin Cave",
    "description": "Anonymised public demo walk marker for FieldOps Atlas.",
    "siteType": "Walk",
    "status": "demo",
    "regionId": "south",
    "lat": 51.254297,
    "lng": -0.305925,
    "what3words": "",
    "accessNotes": "",
    "address": "",
    "gridRef": "",
    "services": [],
    "inputs": [],
    "equipment": [],
    "walkthrough": {
      "type": "",
      "url": "",
      "notes": ""
    }
  },
  {
    "id": "sparrow-ledge-walk",
    "name": "Sparrow Ledge Walk",
    "description": "Anonymised public demo walk marker for FieldOps Atlas.",
    "siteType": "Walk",
    "status": "demo",
    "regionId": "south",
    "lat": 51.196236,
    "lng": -0.287567,
    "what3words": "",
    "accessNotes": "",
    "address": "",
    "gridRef": "",
    "services": [],
    "inputs": [],
    "equipment": [],
    "walkthrough": {
      "type": "",
      "url": "",
      "notes": ""
    }
  },
  {
    "id": "hazel-glen-hollow",
    "name": "Hazel Glen Hollow",
    "description": "Anonymised public demo walk marker for FieldOps Atlas.",
    "siteType": "Walk",
    "status": "demo",
    "regionId": "south",
    "lat": 51.081036,
    "lng": 1.274497,
    "what3words": "",
    "accessNotes": "",
    "address": "",
    "gridRef": "",
    "services": [],
    "inputs": [],
    "equipment": [],
    "walkthrough": {
      "type": "",
      "url": "",
      "notes": ""
    }
  },
  {
    "id": "amber-cove-ramble",
    "name": "Amber Cove Ramble",
    "description": "Anonymised public demo walk marker for FieldOps Atlas.",
    "siteType": "Walk",
    "status": "demo",
    "regionId": "south",
    "lat": 51.125007,
    "lng": 1.353744,
    "what3words": "",
    "accessNotes": "",
    "address": "",
    "gridRef": "",
    "services": [],
    "inputs": [],
    "equipment": [],
    "walkthrough": {
      "type": "",
      "url": "",
      "notes": ""
    }
  },
  {
    "id": "distant-basin-walk",
    "name": "Distant Basin Walk",
    "description": "Anonymised public demo walk marker for FieldOps Atlas.",
    "siteType": "Walk",
    "status": "demo",
    "regionId": "south",
    "lat": 51.174376,
    "lng": 1.288981,
    "what3words": "",
    "accessNotes": "",
    "address": "",
    "gridRef": "",
    "services": [],
    "inputs": [],
    "equipment": [],
    "walkthrough": {
      "type": "",
      "url": "",
      "notes": ""
    }
  },
  {
    "id": "meadow-spring-path",
    "name": "Meadow Spring Path",
    "description": "Anonymised public demo walk marker for FieldOps Atlas.",
    "siteType": "Walk",
    "status": "demo",
    "regionId": "south",
    "lat": 50.393427,
    "lng": -4.330558,
    "what3words": "",
    "accessNotes": "",
    "address": "",
    "gridRef": "",
    "services": [],
    "inputs": [],
    "equipment": [],
    "walkthrough": {
      "type": "",
      "url": "",
      "notes": ""
    }
  },
  {
    "id": "low-vale-trail",
    "name": "Low Vale Trail",
    "description": "Anonymised public demo walk marker for FieldOps Atlas.",
    "siteType": "Walk",
    "status": "demo",
    "regionId": "south",
    "lat": 51.403107,
    "lng": -0.097525,
    "what3words": "",
    "accessNotes": "",
    "address": "",
    "gridRef": "",
    "services": [],
    "inputs": [],
    "equipment": [],
    "walkthrough": {
      "type": "",
      "url": "",
      "notes": ""
    }
  },
  {
    "id": "spring-quarry-loop",
    "name": "Spring Quarry Loop",
    "description": "Anonymised public demo walk marker for FieldOps Atlas.",
    "siteType": "Walk",
    "status": "demo",
    "regionId": "south",
    "lat": 50.94395,
    "lng": -1.306379,
    "what3words": "",
    "accessNotes": "",
    "address": "",
    "gridRef": "",
    "services": [],
    "inputs": [],
    "equipment": [],
    "walkthrough": {
      "type": "",
      "url": "",
      "notes": ""
    }
  },
  {
    "id": "sparrow-copse-cave",
    "name": "Sparrow Copse Cave",
    "description": "Anonymised public demo walk marker for FieldOps Atlas.",
    "siteType": "Walk",
    "status": "demo",
    "regionId": "south",
    "lat": 51.260962,
    "lng": 0.994479,
    "what3words": "",
    "accessNotes": "",
    "address": "",
    "gridRef": "",
    "services": [],
    "inputs": [],
    "equipment": [],
    "walkthrough": {
      "type": "",
      "url": "",
      "notes": ""
    }
  },
  {
    "id": "foxglove-bend-path",
    "name": "Foxglove Bend Path",
    "description": "Anonymised public demo walk marker for FieldOps Atlas.",
    "siteType": "Walk",
    "status": "demo",
    "regionId": "south",
    "lat": 50.647134,
    "lng": -3.72658,
    "what3words": "",
    "accessNotes": "",
    "address": "",
    "gridRef": "",
    "services": [],
    "inputs": [],
    "equipment": [],
    "walkthrough": {
      "type": "",
      "url": "",
      "notes": ""
    }
  },
  {
    "id": "iron-crossing-trail",
    "name": "Iron Crossing Trail",
    "description": "Anonymised public demo walk marker for FieldOps Atlas.",
    "siteType": "Walk",
    "status": "demo",
    "regionId": "south",
    "lat": 51.651728,
    "lng": -2.343713,
    "what3words": "",
    "accessNotes": "",
    "address": "",
    "gridRef": "",
    "services": [],
    "inputs": [],
    "equipment": [],
    "walkthrough": {
      "type": "",
      "url": "",
      "notes": ""
    }
  },
  {
    "id": "elder-thicket-trail",
    "name": "Elder Thicket Trail",
    "description": "Anonymised public demo walk marker for FieldOps Atlas.",
    "siteType": "Walk",
    "status": "demo",
    "regionId": "south",
    "lat": 50.748986,
    "lng": 0.245535,
    "what3words": "",
    "accessNotes": "",
    "address": "",
    "gridRef": "",
    "services": [],
    "inputs": [],
    "equipment": [],
    "walkthrough": {
      "type": "",
      "url": "",
      "notes": ""
    }
  },
  {
    "id": "bronze-drift-walk",
    "name": "Bronze Drift Walk",
    "description": "Anonymised public demo walk marker for FieldOps Atlas.",
    "siteType": "Walk",
    "status": "demo",
    "regionId": "south",
    "lat": 51.092912,
    "lng": -0.04491,
    "what3words": "",
    "accessNotes": "",
    "address": "",
    "gridRef": "",
    "services": [],
    "inputs": [],
    "equipment": [],
    "walkthrough": {
      "type": "",
      "url": "",
      "notes": ""
    }
  },
  {
    "id": "frost-lane-walk",
    "name": "Frost Lane Walk",
    "description": "Anonymised public demo walk marker for FieldOps Atlas.",
    "siteType": "Walk",
    "status": "demo",
    "regionId": "south",
    "lat": 51.105362,
    "lng": 0.030068,
    "what3words": "",
    "accessNotes": "",
    "address": "",
    "gridRef": "",
    "services": [],
    "inputs": [],
    "equipment": [],
    "walkthrough": {
      "type": "",
      "url": "",
      "notes": ""
    }
  },
  {
    "id": "ivy-ladder-path",
    "name": "Ivy Ladder Path",
    "description": "Anonymised public demo walk marker for FieldOps Atlas.",
    "siteType": "Walk",
    "status": "demo",
    "regionId": "south",
    "lat": 51.197327,
    "lng": -0.140369,
    "what3words": "",
    "accessNotes": "",
    "address": "",
    "gridRef": "",
    "services": [],
    "inputs": [],
    "equipment": [],
    "walkthrough": {
      "type": "",
      "url": "",
      "notes": ""
    }
  },
  {
    "id": "larch-meadow-path",
    "name": "Larch Meadow Path",
    "description": "Anonymised public demo walk marker for FieldOps Atlas.",
    "siteType": "Walk",
    "status": "demo",
    "regionId": "south",
    "lat": 50.736904,
    "lng": 0.310807,
    "what3words": "",
    "accessNotes": "",
    "address": "",
    "gridRef": "",
    "services": [],
    "inputs": [],
    "equipment": [],
    "walkthrough": {
      "type": "",
      "url": "",
      "notes": ""
    }
  },
  {
    "id": "slate-gate-ramble",
    "name": "Slate Gate Ramble",
    "description": "Anonymised public demo walk marker for FieldOps Atlas.",
    "siteType": "Walk",
    "status": "demo",
    "regionId": "south",
    "lat": 50.734873,
    "lng": 0.321055,
    "what3words": "",
    "accessNotes": "",
    "address": "",
    "gridRef": "",
    "services": [],
    "inputs": [],
    "equipment": [],
    "walkthrough": {
      "type": "",
      "url": "",
      "notes": ""
    }
  },
  {
    "id": "moon-ridge-trail",
    "name": "Moon Ridge Trail",
    "description": "Anonymised public demo walk marker for FieldOps Atlas.",
    "siteType": "Walk",
    "status": "demo",
    "regionId": "south",
    "lat": 50.786925,
    "lng": 0.283166,
    "what3words": "",
    "accessNotes": "",
    "address": "",
    "gridRef": "",
    "services": [],
    "inputs": [],
    "equipment": [],
    "walkthrough": {
      "type": "",
      "url": "",
      "notes": ""
    }
  },
  {
    "id": "hazel-cliff-hollow",
    "name": "Hazel Cliff Hollow",
    "description": "Anonymised public demo walk marker for FieldOps Atlas.",
    "siteType": "Walk",
    "status": "demo",
    "regionId": "south",
    "lat": 50.44491,
    "lng": -3.539406,
    "what3words": "",
    "accessNotes": "",
    "address": "",
    "gridRef": "",
    "services": [],
    "inputs": [],
    "equipment": [],
    "walkthrough": {
      "type": "",
      "url": "",
      "notes": ""
    }
  },
  {
    "id": "sparrow-drift-hollow",
    "name": "Sparrow Drift Hollow",
    "description": "Anonymised public demo walk marker for FieldOps Atlas.",
    "siteType": "Walk",
    "status": "demo",
    "regionId": "south",
    "lat": 51.597314,
    "lng": -0.102079,
    "what3words": "",
    "accessNotes": "",
    "address": "",
    "gridRef": "",
    "services": [],
    "inputs": [],
    "equipment": [],
    "walkthrough": {
      "type": "",
      "url": "",
      "notes": ""
    }
  },
  {
    "id": "dew-basin-cave",
    "name": "Dew Basin Cave",
    "description": "Anonymised public demo walk marker for FieldOps Atlas.",
    "siteType": "Walk",
    "status": "demo",
    "regionId": "south",
    "lat": 51.249641,
    "lng": -2.369887,
    "what3words": "",
    "accessNotes": "",
    "address": "",
    "gridRef": "",
    "services": [],
    "inputs": [],
    "equipment": [],
    "walkthrough": {
      "type": "",
      "url": "",
      "notes": ""
    }
  },
  {
    "id": "bronze-gate-ridge",
    "name": "Bronze Gate Ridge",
    "description": "Anonymised public demo walk marker for FieldOps Atlas.",
    "siteType": "Walk",
    "status": "demo",
    "regionId": "south",
    "lat": 51.463236,
    "lng": -0.580779,
    "what3words": "",
    "accessNotes": "",
    "address": "",
    "gridRef": "",
    "services": [],
    "inputs": [],
    "equipment": [],
    "walkthrough": {
      "type": "",
      "url": "",
      "notes": ""
    }
  },
  {
    "id": "willow-rise-walk",
    "name": "Willow Rise Walk",
    "description": "Anonymised public demo walk marker for FieldOps Atlas.",
    "siteType": "Walk",
    "status": "demo",
    "regionId": "south",
    "lat": 51.399873,
    "lng": -0.527906,
    "what3words": "",
    "accessNotes": "",
    "address": "",
    "gridRef": "",
    "services": [],
    "inputs": [],
    "equipment": [],
    "walkthrough": {
      "type": "",
      "url": "",
      "notes": ""
    }
  },
  {
    "id": "sage-camp-ramble",
    "name": "Sage Camp Ramble",
    "description": "Anonymised public demo walk marker for FieldOps Atlas.",
    "siteType": "Walk",
    "status": "demo",
    "regionId": "south",
    "lat": 51.174615,
    "lng": 1.090077,
    "what3words": "",
    "accessNotes": "",
    "address": "",
    "gridRef": "",
    "services": [],
    "inputs": [],
    "equipment": [],
    "walkthrough": {
      "type": "",
      "url": "",
      "notes": ""
    }
  },
  {
    "id": "sage-shore-path",
    "name": "Sage Shore Path",
    "description": "Anonymised public demo walk marker for FieldOps Atlas.",
    "siteType": "Walk",
    "status": "demo",
    "regionId": "south",
    "lat": 51.690385,
    "lng": 0.162234,
    "what3words": "",
    "accessNotes": "",
    "address": "",
    "gridRef": "",
    "services": [],
    "inputs": [],
    "equipment": [],
    "walkthrough": {
      "type": "",
      "url": "",
      "notes": ""
    }
  },
  {
    "id": "heather-coast-ramble",
    "name": "Heather Coast Ramble",
    "description": "Anonymised public demo walk marker for FieldOps Atlas.",
    "siteType": "Walk",
    "status": "demo",
    "regionId": "south",
    "lat": 51.704894,
    "lng": -0.100273,
    "what3words": "",
    "accessNotes": "",
    "address": "",
    "gridRef": "",
    "services": [],
    "inputs": [],
    "equipment": [],
    "walkthrough": {
      "type": "",
      "url": "",
      "notes": ""
    }
  },
  {
    "id": "silver-mill-ramble",
    "name": "Silver Mill Ramble",
    "description": "Anonymised public demo walk marker for FieldOps Atlas.",
    "siteType": "Walk",
    "status": "demo",
    "regionId": "south",
    "lat": 51.374865,
    "lng": -0.327039,
    "what3words": "",
    "accessNotes": "",
    "address": "",
    "gridRef": "",
    "services": [],
    "inputs": [],
    "equipment": [],
    "walkthrough": {
      "type": "",
      "url": "",
      "notes": ""
    }
  },
  {
    "id": "spring-gate-trail",
    "name": "Spring Gate Trail",
    "description": "Anonymised public demo walk marker for FieldOps Atlas.",
    "siteType": "Walk",
    "status": "demo",
    "regionId": "south",
    "lat": 51.131406,
    "lng": 1.109572,
    "what3words": "",
    "accessNotes": "",
    "address": "",
    "gridRef": "",
    "services": [],
    "inputs": [],
    "equipment": [],
    "walkthrough": {
      "type": "",
      "url": "",
      "notes": ""
    }
  },
  {
    "id": "iron-loop-hollow",
    "name": "Iron Loop Hollow",
    "description": "Anonymised public demo walk marker for FieldOps Atlas.",
    "siteType": "Walk",
    "status": "demo",
    "regionId": "south",
    "lat": 50.732984,
    "lng": -3.597608,
    "what3words": "",
    "accessNotes": "",
    "address": "",
    "gridRef": "",
    "services": [],
    "inputs": [],
    "equipment": [],
    "walkthrough": {
      "type": "",
      "url": "",
      "notes": ""
    }
  },